subject,label,lat,lon,date
http://www.wikidata.org/entity/Q1001093,Battle of Turckheim,48.08722222,7.28111111,5-1-1675
http://www.wikidata.org/entity/Q1001479,Battle of Cape Finisterre,42.8941,-9.27109,22-7-1805
http://www.wikidata.org/entity/Q1006470,Battle of Jinzhou,41.11444444,121.1291667,07-10-1948
http://www.wikidata.org/entity/Q1018947,Battle of the Badger Mouth,40.81078,114.88114,1-8-1211
http://www.wikidata.org/entity/Q1028247,Battle of Groix,47.63916667,-3.58666667,23-6-1795
http://www.wikidata.org/entity/Q1035922,Kassa attack,48.71666667,21.25,26-06-1941
http://www.wikidata.org/entity/Q1037476,Battle of Tornow,53.0625,13.29083333,26-9-1758
http://www.wikidata.org/entity/Q1039366,Ofira Air Battle,27.91222222,34.32972222,06-10-1973
http://www.wikidata.org/entity/Q1042049,Battle of Jarnac,45.68138889,-0.175833333,13-3-1569
http://www.wikidata.org/entity/Q1047091,Battle of Rạch Gầm-Xoài Mút,10.33888889,106.325,20-1-1785
http://www.wikidata.org/entity/Q1049697,Battle of Płowce,52.6156,18.6439,27-9-1331
http://www.wikidata.org/entity/Q1051804,Battle of Reims,49.2628,4.03472,13-3-1814
http://www.wikidata.org/entity/Q1052651,Battle of Madagascar,-12.26666667,49.28333333,05-05-1942
http://www.wikidata.org/entity/Q1054868,Battle of Hondschoote,50.98027778,2.586111111,8-9-1793
http://www.wikidata.org/entity/Q1055755,Battle of Ilipa,37.51833333,-5.978333333,1-1--217
http://www.wikidata.org/entity/Q1059732,Battle of Wattignies,50.2014,4.01333,16-10-1793
http://www.wikidata.org/entity/Q1061048,Battle of Midtskogen,60.8767,11.4681,01-09-1939
http://www.wikidata.org/entity/Q1061090,Battle of Philippi,39.151827,-80.039687,3-6-1861
http://www.wikidata.org/entity/Q1061228,Battle of Puebla,19.05,-98.20777778,05-05-2014
http://www.wikidata.org/entity/Q1061267,Battle of Rich Mountain,38.86611111,-79.93388889,11-7-1861
http://www.wikidata.org/entity/Q1062615,Battle of Auray,47.6686,-2.98139,29-9-1364
http://www.wikidata.org/entity/Q1063735,Second Battle of the Somme,50.22111111,1.566666667,21-08-1918
http://www.wikidata.org/entity/Q1066253,Siege of Vicksburg,32.3436,-90.8511,12-4-1861
http://www.wikidata.org/entity/Q10671371,Battle of Karstula,62.87694444,24.80222222,21-2-1808
http://www.wikidata.org/entity/Q10671375,,63.23333333,24.4,21-2-1808
http://www.wikidata.org/entity/Q10671415,,62.07194444,21.52527778,21-2-1808
http://www.wikidata.org/entity/Q1071578,Battle of Smolensk,54.78333333,32.05,17-8-1812
http://www.wikidata.org/entity/Q1073358,Battle of Vaslui,46.61666667,27.71666667,10-1-1475
http://www.wikidata.org/entity/Q1073849,Battle of Maipú,-33.50111111,-70.77194444,5-4-1818
http://www.wikidata.org/entity/Q1075269,Battle of Meissen,51.163612,13.4775,3-12-1759
http://www.wikidata.org/entity/Q1078359,Battle of Yamen,22.188,113.073,19-3-1279
http://www.wikidata.org/entity/Q1083718,Battle of Tarutino,55.17722222,37.00277778,24-6-1812
http://www.wikidata.org/entity/Q1085392,Battle of Neerwinden,50.7667,5.05,18-3-1793
http://www.wikidata.org/entity/Q1085401,Battle of Katzbach,51.21666667,16.16666667,26-8-1813
http://www.wikidata.org/entity/Q1088364,Battle of the Lys,50.70555556,2.9,07-04-1918
http://www.wikidata.org/entity/Q1093286,Battle of Mondovì,44.3833,7.81667,21-4-1796
http://www.wikidata.org/entity/Q1096151,Battle of Delville Wood,50.0278,2.8099,14-07-1916
http://www.wikidata.org/entity/Q1109794,battle of Desio,45.61666667,9.216666667,4-2-1277
http://www.wikidata.org/entity/Q1113659,Battle of Fulford,53.931,-1.07,2-10-1066
http://www.wikidata.org/entity/Q11154362,,49.2149674,15.88167594,21-5-1468
http://www.wikidata.org/entity/Q112016,Battle of the Persian Gate,30.70833333,51.59861111,15-1--329
http://www.wikidata.org/entity/Q1121532,Battle of Alcácer Quibir,35.0167,-5.9,4-8-1578
http://www.wikidata.org/entity/Q1122487,Battle of Boquerón,-22.77363889,-59.94086111,09-09-1932
http://www.wikidata.org/entity/Q1123353,Battle of Rorke's Drift,-28.34916667,30.53416667,22-1-1879
http://www.wikidata.org/entity/Q1127035,Battle of La Bassée,50.5342,2.80806,10-10-1914
http://www.wikidata.org/entity/Q1127353,Battle of Ad Decimum,36.75,10.3333,13-9-533
http://www.wikidata.org/entity/Q1132313,Battle of Khorramshahr,30.43333333,48.16666667,22-09-1980
http://www.wikidata.org/entity/Q1132579,Battle of Princeton,40.3279,-74.67339,19-4-1775
http://www.wikidata.org/entity/Q1134191,Battle of Tory Island,55.3,-8.5,12-10-1798
http://www.wikidata.org/entity/Q1135598,Battle of Daugavpils,55.87138889,26.51611111,03-01-1920
http://www.wikidata.org/entity/Q1136414,Battle of Havana,23.1167,-82.3833,12-10-1748
http://www.wikidata.org/entity/Q1136870,Battle of Sandwich,51.27027778,1.42,24-8-1217
http://www.wikidata.org/entity/Q1137302,Battle of Omdurman,15.751945,32.520132,2-9-1898
http://www.wikidata.org/entity/Q1137980,Battle of Ravenna,44.41666667,12.2,11-4-1512
http://www.wikidata.org/entity/Q11396078,Battle of Bubaigawara,35.66888889,139.4777778,1-1-1455
http://www.wikidata.org/entity/Q1140646,Battle of Formigny,49.33722222,-0.897777778,15-4-1450
http://www.wikidata.org/entity/Q1141380,Battle of Wake Island,19.29,166.601,08-12-1941
http://www.wikidata.org/entity/Q1142666,Battle of Eretria,38.38333333,23.78333333,1-1--430
http://www.wikidata.org/entity/Q1143181,Battle of Entzheim,48.53527778,7.63805556,4-10-1674
http://www.wikidata.org/entity/Q1144824,Battle of Messines,50.7644,2.8981,07-06-1917
http://www.wikidata.org/entity/Q1148483,Battle of Elixheim,50.78416667,5.00972222,18-7-1705
http://www.wikidata.org/entity/Q1149680,First Battle of Lexington,39.1915,-93.878636,13-9-1861
http://www.wikidata.org/entity/Q1150410,Battle of Boyacá,5.45,-73.4292,7-8-1819
http://www.wikidata.org/entity/Q1152440,Pickett's Charge,39.8126,-77.2366,12-4-1861
http://www.wikidata.org/entity/Q1152443,Battle of Bassignano,45.00222222,8.731944444,27-9-1745
http://www.wikidata.org/entity/Q1157021,Battle of Białołęka,52.1929,20.8897,24-2-1831
http://www.wikidata.org/entity/Q11636595,Battle of Boulogne (1940),50.72638889,1.61472222,22-05-1940
http://www.wikidata.org/entity/Q1164835,Battle of Lagos,37,-8.6667,27-6-1693
http://www.wikidata.org/entity/Q1165440,Battle of Mauron,48.08222222,-2.285833333,14-8-1352
http://www.wikidata.org/entity/Q1172504,Battle of Château-Thierry,49.04194444,3.37194444,28-07-1914
http://www.wikidata.org/entity/Q117298,Battle of Varaville,49.28472222,-0.154444444,22-3-1057
http://www.wikidata.org/entity/Q1174179,Battle of Jassin,-4.681388889,39.18472222,18-01-1915
http://www.wikidata.org/entity/Q1184835,Battle of Numistro,38.975596,16.31979,1-1--217
http://www.wikidata.org/entity/Q1185335,Battle of Weihaiwei,37.497,122.171,20-1-1895
http://www.wikidata.org/entity/Q1187406,Battle of Graus,42.18333333,0.33333333,1-1-1063
http://www.wikidata.org/entity/Q1187461,Battle of Tanagra,38.31666667,23.53333333,1-1--459
http://www.wikidata.org/entity/Q1191854,Battle of Gonzales,29.5089,-97.4478,2-10-1835
http://www.wikidata.org/entity/Q1192053,Battle of Vauchamps,48.8811,3.6164,14-2-1814
http://www.wikidata.org/entity/Q1192118,Battle of Chemulpo Bay,37.34666667,126.5228333,09-02-1904
http://www.wikidata.org/entity/Q1192867,Battle of Pułtusk,52.70833333,21.075,26-12-1806
http://www.wikidata.org/entity/Q1193959,Battle of Toba-Fushimi,35.01666667,135.75,31-1-1868
http://www.wikidata.org/entity/Q1194172,Battle of Novi,44.7617,-8.79056,15-8-1799
http://www.wikidata.org/entity/Q1195263,Battle of Ekeren,51.26666667,4.41666667,30-6-1703
http://www.wikidata.org/entity/Q1196554,Battle of Minorca,39.89,4.35,20-5-1756
http://www.wikidata.org/entity/Q12001343,,60.3925,5.323333333,31-5-1181
http://www.wikidata.org/entity/Q12001347,Battle of Kalmar,56.66666667,16.36666667,17-7-1611
http://www.wikidata.org/entity/Q1208970,Battle of Yingkou,40.66666667,122.2333333,1-8-1894
http://www.wikidata.org/entity/Q1208996,Battle of Lushunkou,38.81666667,121.2333333,1-8-1894
http://www.wikidata.org/entity/Q1209808,Battle of Jiuliancheng,40.171667,124.448056,1-8-1894
http://www.wikidata.org/entity/Q1215310,Battle of San Juan Hill,20.0209106,-75.7961154,25-4-1898
http://www.wikidata.org/entity/Q1219645,Battle of Atapuerca,42.35,-3.51666667,1-9-1054
http://www.wikidata.org/entity/Q12224010,Battle of Menin,50.7956,3.12167,13-9-1793
http://www.wikidata.org/entity/Q1230997,First Battle of Krithia,40.09444444,26.225,28-07-1914
http://www.wikidata.org/entity/Q1241936,Battle of Pákozd,47.22111944,18.54493056,29-9-1848
http://www.wikidata.org/entity/Q1245157,Battle of Loos,50.4583,2.79417,25-09-1915
http://www.wikidata.org/entity/Q1247957,Battle of Trois-Rivières,46.342751,-72.552483,8-6-1776
http://www.wikidata.org/entity/Q1248605,Battle of Beachy Head,50.73743,0.24768,10-7-1690
http://www.wikidata.org/entity/Q1259096,Case White,43.65416667,17.7625,20-01-1943
http://www.wikidata.org/entity/Q1259218,Battle of Panipat,29.39,76.97,14-1-1761
http://www.wikidata.org/entity/Q1259700,Battle of Belchite,41.3,-0.75,24-08-1937
http://www.wikidata.org/entity/Q1260622,Battle of the Axona,49.5,3.5,1-1--57
http://www.wikidata.org/entity/Q12627990,Battle of Kupres (1992),43.9931,17.2763,03-04-1992
http://www.wikidata.org/entity/Q12645601,Battle of Kusonje,45.4624,17.2367,08-09-1991
http://www.wikidata.org/entity/Q1264908,Battle of Chrysopolis,40.01666667,29.03333333,18-9-324
http://www.wikidata.org/entity/Q12651299,Raid on Brandenburg,50.65722222,12.35527778,26-2-1326
http://www.wikidata.org/entity/Q1265750,Battle of Callinicum,35.95,39.01666667,19-4-531
http://www.wikidata.org/entity/Q1267513,Battle of Vosges,48.5,7.5,1-1--57
http://www.wikidata.org/entity/Q1268733,Battle of the Sabis,50.23333333,3.441666667,1-1--57
http://www.wikidata.org/entity/Q1272132,Battle of Stones River,35.88,-86.435,2-1-1863
http://www.wikidata.org/entity/Q127299,Battle of Kolín,50.029,15.122,18-6-1757
http://www.wikidata.org/entity/Q1274566,Battle of the Arar,45.98944444,4.719722222,1-1--57
http://www.wikidata.org/entity/Q12747919,Battle of Ljubić,43.902778,20.355556,24-4-1815
http://www.wikidata.org/entity/Q1275200,Battle of the Sound,55.75,12.75,8-11-1658
http://www.wikidata.org/entity/Q1280119,Battle of the Ebro,41.16388889,0.475,25-07-1938
http://www.wikidata.org/entity/Q1286106,Fao Landing,29.928,48.4661,06-11-1914
http://www.wikidata.org/entity/Q1286274,Battle of Schuinshoogte,-27.61647222,29.87802778,8-2-1881
http://www.wikidata.org/entity/Q12880416,,37.054952,21.705991,19-07-1944
http://www.wikidata.org/entity/Q12880420,,37.21666667,21.96666667,13-09-1944
http://www.wikidata.org/entity/Q12880426,,38.42931944,22.66728333,1-1-1821
http://www.wikidata.org/entity/Q12880430,Battle of the Trench,37.50833333,22.375,1-1-1821
http://www.wikidata.org/entity/Q12880434,,37.96666667,23.61666667,4-3-1827
http://www.wikidata.org/entity/Q12880442,,40.571266,22.987582,1-1-1821
http://www.wikidata.org/entity/Q12880443,,38.13086,21.94911,19-9-1827
http://www.wikidata.org/entity/Q12880457,,37.383333,22.05,1-1-1821
http://www.wikidata.org/entity/Q12880462,Battle of Kakosalesi,38.26666667,23.7,1-1-1821
http://www.wikidata.org/entity/Q12880464,,38.56666667,23.21666667,1-1-1821
http://www.wikidata.org/entity/Q12880472,,38.50888889,22.68916667,1-1-1821
http://www.wikidata.org/entity/Q12883575,,38.39,23,1-1-1821
http://www.wikidata.org/entity/Q12883995,,37.971421,23.726166,18-5-1827
http://www.wikidata.org/entity/Q1288821,Battle of Abu Klea,16.98333333,33.3,17-1-1885
http://www.wikidata.org/entity/Q1300742,Battle of Flodden,55.62693,-2.1753,19-9-1513
http://www.wikidata.org/entity/Q1302680,Battle of Qurna,31.0167,47.4333,03-12-1914
http://www.wikidata.org/entity/Q130847,Battle of Verdun,49.20805556,5.421944444,21-02-1916
http://www.wikidata.org/entity/Q130861,Battle of Kursk,51.501111,36.051389,05-07-1943
http://www.wikidata.org/entity/Q1310755,Battle of Rancagua,-34.16666667,-70.75,2-10-1814
http://www.wikidata.org/entity/Q131386,Battle of Alesia,47.53722222,4.50027778,1-1--57
http://www.wikidata.org/entity/Q1314054,Battle of the Herrings,48.0667,1.73333,1-1-1337
http://www.wikidata.org/entity/Q1315700,Battle of Concepción,29.39055556,-98.49027778,28-10-1835
http://www.wikidata.org/entity/Q131969,Battle of Thermopylae,38.8,22.53333333,1-1--479
http://www.wikidata.org/entity/Q1320675,Battle of Havrincourt,50.11111111,3.086111111,08-08-1918
http://www.wikidata.org/entity/Q13218257,,16.76,-2.638888889,21-04-2013
http://www.wikidata.org/entity/Q132568,Battle of the Somme,50.0155,2.69742,01-07-1916
http://www.wikidata.org/entity/Q1326527,Battle of Cowpens,35.13683333,-81.816,17-1-1781
http://www.wikidata.org/entity/Q1327790,Battle of Chickamauga,34.9176,-85.2606,20-9-1863
http://www.wikidata.org/entity/Q1328499,Battle of Brihuega,40.76666667,-2.86666667,8-12-1710
http://www.wikidata.org/entity/Q1328537,Battle of Ourique,37.65,-8.225,25-7-1139
http://www.wikidata.org/entity/Q1332237,Battle of Overloon,51.57027778,5.95833333,01-09-1939
http://www.wikidata.org/entity/Q1337059,Battle of Tewkesbury,51.98638889,-2.161388889,4-5-1471
http://www.wikidata.org/entity/Q133977,Battle of Caravaggio,45.49777778,9.643055556,15-9-1448
http://www.wikidata.org/entity/Q1339928,Battle of Evesham,52.1058726,-1.9445372,4-8-1265
http://www.wikidata.org/entity/Q13409360,Battle of al-Qusayr,34.51194444,36.57638889,19-05-2013
http://www.wikidata.org/entity/Q134114,Battle of Austerlitz,49.13333333,16.76666667,18-5-1803
http://www.wikidata.org/entity/Q1341972,Battle of Aljubarrota,39.63805556,-8.838055556,14-8-1385
http://www.wikidata.org/entity/Q1345169,Battle of the Sambre,50.4667,4.86667,04-11-1918
http://www.wikidata.org/entity/Q1346666,,48.0944,13.8775,1-11-1805
http://www.wikidata.org/entity/Q1347209,Battle of Praga,52.21666667,21.03333333,4-11-1794
http://www.wikidata.org/entity/Q1353773,Battle of the Great Plains,37.05794444,10.06259722,1-1--217
http://www.wikidata.org/entity/Q1354080,Battle of Muret,43.46111111,1.32666667,1-1-1209
http://www.wikidata.org/entity/Q135468,Battle of Haw's Shop,37.676,-77.3118,12-4-1861
http://www.wikidata.org/entity/Q1355206,Battle of Tyndaris,38.14555556,15.03972222,1-1--263
http://www.wikidata.org/entity/Q1355391,Battle of Appomattox Court House,37.377778,-78.794444,9-4-1865
http://www.wikidata.org/entity/Q1358032,Battle of Sandepu,41.78333333,123.4333333,08-02-1904
http://www.wikidata.org/entity/Q1359641,Battle of Tolentino,43.21361111,13.29111111,3-5-1815
http://www.wikidata.org/entity/Q1361210,Battle of Christmas Island,-10.48333333,105.6333333,31-03-1942
http://www.wikidata.org/entity/Q1361990,Battle of Lacolle Mills,45.081309,-73.372633,20-11-1812
http://www.wikidata.org/entity/Q1362014,Battle of the Silarus,40.483333,14.933333,1-1--217
http://www.wikidata.org/entity/Q1362016,Battle of Beneventum (214 BC),41.1333,14.7833,1-1--217
http://www.wikidata.org/entity/Q1362021,Siege of Corinth,34.934,-88.522,29-4-1862
http://www.wikidata.org/entity/Q1362035,Battle of Herdonia (212 BC),41.31666667,15.63333333,1-1--217
http://www.wikidata.org/entity/Q1362053,Battle of Mantinea,37.6,22.4,1-1--430
http://www.wikidata.org/entity/Q1362188,Battle of Talikota,16.47330556,76.31183333,26-1-1565
http://www.wikidata.org/entity/Q13622762,Liberation of Martigues,43.40527778,5.0475,20-08-1944
http://www.wikidata.org/entity/Q1362294,Battle of Drewry's Bluff,37.4211,-77.4229,15-5-1862
http://www.wikidata.org/entity/Q13628984,Battle of Kalamata,37.01666667,22.1,1-1-1821
http://www.wikidata.org/entity/Q136344,Battle of Köse Dağ,40.25,39.55,26-6-1243
http://www.wikidata.org/entity/Q1363925,Battle of Port Arthur,38.78005,121.25782,08-02-1904
http://www.wikidata.org/entity/Q1366089,Battle of Fort Henry,36.5186,-88.0391,6-2-1862
http://www.wikidata.org/entity/Q1369629,Battle of Fraga,41.51666944,0.333330556,17-7-1134
http://www.wikidata.org/entity/Q1375813,Battle of Oriskany,43.17722222,-75.36944444,6-8-1777
http://www.wikidata.org/entity/Q1378270,Battle of Jerusalem,31.78333333,35.21666667,17-11-1917
http://www.wikidata.org/entity/Q1379845,Kravica attack,44.21666667,19.2,06-04-1992
http://www.wikidata.org/entity/Q1387925,Battle of Round Mountain,36.13,-96.2869,12-4-1861
http://www.wikidata.org/entity/Q1387983,Battle of Memphis,35.1291,-90.1558,12-4-1861
http://www.wikidata.org/entity/Q1388058,Battle of Magersfontein,-28.96666667,24.7,11-12-1899
http://www.wikidata.org/entity/Q1390639,Battle of Frenchman's Creek,42.94227,-78.92645,18-6-1812
http://www.wikidata.org/entity/Q1392,Battle of Nieuwpoort,51.15583333,2.738333333,2-7-1600
http://www.wikidata.org/entity/Q1392699,Battle of Blood River,-28.10527778,30.54166667,16-12-1838
http://www.wikidata.org/entity/Q1398069,Battle of Amba Alagi,12.9942,39.5036,7-12-1895
http://www.wikidata.org/entity/Q139808,Battle of the Catalaunian Plains,48.29888889,4.078055556,20-6-451
http://www.wikidata.org/entity/Q1400440,Battle of Velbazhd,42.28555556,22.68972222,28-7-1330
http://www.wikidata.org/entity/Q1402530,Battle of 73 Easting,29.54472222,46.62583333,02-08-1990
http://www.wikidata.org/entity/Q1402751,Battle of Pichincha,-0.219088889,-78.52726111,24-5-1822
http://www.wikidata.org/entity/Q1404199,Battle of the Panaro,44.622975,10.99731389,3-4-1815
http://www.wikidata.org/entity/Q1409225,Fetterman Fight,44.571168,-106.841052,1-1-1866
http://www.wikidata.org/entity/Q1410792,Second Battle of Amba Alagi,12.98333333,39.55,01-09-1939
http://www.wikidata.org/entity/Q1411470,Battle of Vlotho,52.16666667,8.84972222,1-1-1618
http://www.wikidata.org/entity/Q1411508,Battle of Wilkomierz,55.16583333,24.77138889,1-9-1435
http://www.wikidata.org/entity/Q1413158,Battle of Wenden,57.31305556,25.27472222,7-1-1601
http://www.wikidata.org/entity/Q1415925,Battle of Jankau,49.6503,14.7294,6-3-1645
http://www.wikidata.org/entity/Q1416369,Battle of Crysler's Farm,44.94197778,-75.07017222,11-11-1813
http://www.wikidata.org/entity/Q1417205,Battle of Mons,50.45,3.95,23-08-1914
http://www.wikidata.org/entity/Q1417580,Battle of Falkirk Muir,56.001,-3.784,28-1-1746
http://www.wikidata.org/entity/Q1419459,Battle of the Chesapeake,36.9675,-75.53916667,5-9-1781
http://www.wikidata.org/entity/Q1422925,Battle of Val-ès-Dunes,49.11,-0.216944444,10-8-1047
http://www.wikidata.org/entity/Q1424844,Battle of Delium,38.3481,23.6492,1-1--430
http://www.wikidata.org/entity/Q1424959,,47.371,0.880884,28-8-1044
http://www.wikidata.org/entity/Q1425658,Battle of Chacabuco,-32.99305556,-70.68388889,12-2-1817
http://www.wikidata.org/entity/Q1425882,Battle of the Wilderness,38.3164,-77.7597,6-5-1864
http://www.wikidata.org/entity/Q1426037,Battle of Cheat Mountain,38.62138889,-79.88055556,12-4-1861
http://www.wikidata.org/entity/Q1427630,Battle of Adrianople,41.666667,26.566667,14-4-1205
http://www.wikidata.org/entity/Q1428169,Battle of Barnet,51.66222222,-0.2,14-4-1471
http://www.wikidata.org/entity/Q1429757,Battle of Châtillon,48.8,2.29,19-7-1870
http://www.wikidata.org/entity/Q1431266,Battle of Saint Kitts,17.15,-62.58333333,26-1-1782
http://www.wikidata.org/entity/Q1434874,Battle of Sankelmark,54.71740556,9.44395,1-2-1864
http://www.wikidata.org/entity/Q1434879,Battle of Als,54.98333333,9.916666667,1-2-1864
http://www.wikidata.org/entity/Q1436705,Battle of Tuttlingen,47.9852,8.8234,24-11-1643
http://www.wikidata.org/entity/Q1438686,Battle of Plymouth,49.964,-4.21,26-8-1652
http://www.wikidata.org/entity/Q1440764,Battle of Timor,-10.38333333,123.6333333,19-02-1942
http://www.wikidata.org/entity/Q1442050,Battle of Maldon,51.71527778,0.700833333,10-8-991
http://www.wikidata.org/entity/Q1443091,Battle of Garigliano,41.2167,13.5667,29-12-1503
http://www.wikidata.org/entity/Q1446460,Action of 4 October 1710,55.517252,12.30982,4-10-1710
http://www.wikidata.org/entity/Q1453186,Action of 30 September 1681,37.02275,-8.99089,30-9-1681
http://www.wikidata.org/entity/Q145588,Battle of Gumbinnen,54.6,22.2,20-08-1914
http://www.wikidata.org/entity/Q1456533,Battle of Guinegate,50.60805556,2.27111111,7-8-1479
http://www.wikidata.org/entity/Q1458235,Battle of the Upper Baetis,36.78333333,-6.35,1-1--217
http://www.wikidata.org/entity/Q1464620,Battle of La Motta,45.71666667,11.36666667,7-10-1513
http://www.wikidata.org/entity/Q1467456,Battle of Teruel,40.35,-1.1,15-12-1937
http://www.wikidata.org/entity/Q14689,Battle of the Ice,58.68333333,27.48333333,5-4-1242
http://www.wikidata.org/entity/Q1473165,Miljevci plateau incident,43.88055556,16.03611111,21-06-1992
http://www.wikidata.org/entity/Q1474180,Battle of Belleau Wood,49.07323056,3.29087222,01-06-1918
http://www.wikidata.org/entity/Q1474647,Battle of Crotona,39.08333333,17.11666667,1-1--217
http://www.wikidata.org/entity/Q1475243,Battle of Cape Esperance,-9.25,159.7,01-09-1939
http://www.wikidata.org/entity/Q1475533,Battle of Spartolos,38.46666667,23.6,1-1--430
http://www.wikidata.org/entity/Q1476126,Battle of Panormus,38.1167,13.3667,1-1--263
http://www.wikidata.org/entity/Q1477050,Chattanooga Campaign,35.045,-85.309,12-4-1861
http://www.wikidata.org/entity/Q1478525,Battle of Edgehill,52.13997,-1.48416,1-1-1642
http://www.wikidata.org/entity/Q1478970,Battle of Carthage,36.886667,10.314722,1-1-698
http://www.wikidata.org/entity/Q1481920,Battle of Alarcos,38.95277778,-4,19-7-1195
http://www.wikidata.org/entity/Q1495481,Battle of Stoke Field,53.035,-0.888,16-6-1487
http://www.wikidata.org/entity/Q149560,Battle of Stallupönen,54.63055556,22.57333333,17-08-1914
http://www.wikidata.org/entity/Q1497885,Battle of Hoke's Run,39.521423,-77.913365,2-7-1861
http://www.wikidata.org/entity/Q1497886,Battle of San Matteo,46.37888889,10.56666667,28-07-1914
http://www.wikidata.org/entity/Q1497902,Battle of Blackburn's Ford,38.80416667,-77.44916667,18-7-1861
http://www.wikidata.org/entity/Q1497909,Battle of Ball's Bluff,39.131525,-77.527428,21-10-1861
http://www.wikidata.org/entity/Q1497926,Battle of Sceaux,48.77861111,2.290555556,19-7-1870
http://www.wikidata.org/entity/Q1497933,Battle of Haelen,50.9333,5.1,12-08-1914
http://www.wikidata.org/entity/Q1497969,Battle of Sayler's Creek,37.30551,-78.22797,12-4-1861
http://www.wikidata.org/entity/Q1500202,Battle of Grumentum,40.28388889,15.90611111,1-1--217
http://www.wikidata.org/entity/Q1500211,Battle of Cissa,41.1157,1.24959,1-1--217
http://www.wikidata.org/entity/Q1500314,Battle of Harran,36.86444444,39.03277778,7-5-1104
http://www.wikidata.org/entity/Q1500532,Battle of Cravant,47.68388889,3.691666667,31-7-1423
http://www.wikidata.org/entity/Q15023755,Battle of Choisy-le-Roi,48.7664,2.40778,19-7-1870
http://www.wikidata.org/entity/Q15023767,Battle of Montmesly,48.7911,2.46278,19-7-1870
http://www.wikidata.org/entity/Q1509619,Battle of Bapheus,40.7667,29.9167,27-7-1302
http://www.wikidata.org/entity/Q1509663,Battle of Dunbar,55.97692,-2.52119,1-1-1296
http://www.wikidata.org/entity/Q15112371,Battle of Barro Vermelho,-29.99,-52.37777778,20-9-1835
http://www.wikidata.org/entity/Q151290,Battle of Moscow,55.75,37.63333333,02-10-1941
http://www.wikidata.org/entity/Q151340,Battle of France,47,2,10-05-1940
http://www.wikidata.org/entity/Q15153857,,38.87888889,-6.96694444,16-1-1812
http://www.wikidata.org/entity/Q15154118,,38.789,15.213,11-2-1675
http://www.wikidata.org/entity/Q1518787,Battle of Moore's Creek Bridge,34.457455,-78.109612,27-2-1776
http://www.wikidata.org/entity/Q1519203,Battle of Mobile Babe,30.24097,-88.05301,23-8-1864
http://www.wikidata.org/entity/Q15197058,Battle for Narva Bridgehead,59.38333333,28.2,02-02-1944
http://www.wikidata.org/entity/Q15230514,,51.16666667,4.833333333,29-10-1798
http://www.wikidata.org/entity/Q15231189,Battle of Andéramboukane,15.4225,3.023333333,26-01-2012
http://www.wikidata.org/entity/Q15231481,,18.04388889,0.603055556,05-06-2013
http://www.wikidata.org/entity/Q1523324,Battle of Arnemuiden,51.645,3.373,23-9-1338
http://www.wikidata.org/entity/Q15233800,,18.91666667,1.483333333,20-01-2012
http://www.wikidata.org/entity/Q15234087,,15.91666667,2.4,17-01-2012
http://www.wikidata.org/entity/Q152486,Battle of Poltava,49.57444444,34.56861111,8-7-1709
http://www.wikidata.org/entity/Q1526883,Battle of the Dunes,51.0383,2.3775,14-6-1658
http://www.wikidata.org/entity/Q1527360,Battle of Leuven,50.86666667,4.7,16-05-1940
http://www.wikidata.org/entity/Q15282200,Algeciras Campaign,36.1311,-5.39601,12-7-1801
http://www.wikidata.org/entity/Q1529375,Battle of Havana,23.11666667,-82.38333333,19-7-1870
http://www.wikidata.org/entity/Q15301965,Battle of Pollare,50.83333333,4.016666667,2-12-1798
http://www.wikidata.org/entity/Q15304619,,12.86805556,11.04638889,24-04-2013
http://www.wikidata.org/entity/Q1532629,Battle of Braga,41.54416667,-8.42194444,20-3-1809
http://www.wikidata.org/entity/Q153316,Battle of Crete,35.2167,24.9167,01-09-1939
http://www.wikidata.org/entity/Q153376,Second Battle of El Alamein,30.83333333,28.95,23-10-1942
http://www.wikidata.org/entity/Q1536618,Battle of Chapultepec,19.421,-99.182,24-4-1846
http://www.wikidata.org/entity/Q153858,Battle of Tannenberg,53.49583333,20.13444444,23-08-1914
http://www.wikidata.org/entity/Q1538855,Battle of Angaur,6.9,134.133,15-09-1944
http://www.wikidata.org/entity/Q1538874,Battle of Spotsylvania Court House,38.2242,-77.5981,13-5-1864
http://www.wikidata.org/entity/Q1539453,Battle of St. Quentin,49.90083333,3.62833333,29-08-1914
http://www.wikidata.org/entity/Q1539513,Battle of Camden,34.36455278,-80.6139,16-8-1780
http://www.wikidata.org/entity/Q1540820,Battle of Aliwal,30.9452,75.6142,28-1-1846
http://www.wikidata.org/entity/Q1541340,Battle of Cape Spartivento,38.4275,8.865833333,28-11-1940
http://www.wikidata.org/entity/Q154182,Battle of Berlin,52.51666667,13.38333333,16-04-1945
http://www.wikidata.org/entity/Q1542829,Battle of South Mountain,39.48501,-77.62161,12-4-1861
http://www.wikidata.org/entity/Q1543531,Battle of Tanagra,38.31666667,23.53333333,1-1--430
http://www.wikidata.org/entity/Q154426,Battle of Jena-Auerstedt,50.95,11.575,14-10-1806
http://www.wikidata.org/entity/Q154635,Battle of Blenheim,48.63333333,10.63333333,13-8-1704
http://www.wikidata.org/entity/Q154942,Battle of Königgrätz,50.21,15.83,3-7-1866
http://www.wikidata.org/entity/Q1550466,Battle of Seven Pines,37.5209,-77.3042,12-4-1861
http://www.wikidata.org/entity/Q1551047,Battle of Čegar,43.36607,21.94219,15-4-1809
http://www.wikidata.org/entity/Q155302,Battle of Loigny-Poupry,48.1239,1.73389,2-12-1870
http://www.wikidata.org/entity/Q15553019,Anbar clashes (2013–14),32.9,41.6,30-12-2013
http://www.wikidata.org/entity/Q15561557,Battle of Zanzur,32.81722222,13.01111111,20-09-1912
http://www.wikidata.org/entity/Q155726,Battle of Narva,59.366667,28.183333,30-11-1700
http://www.wikidata.org/entity/Q156681,Battle of Sedan,49.7,4.944444444,19-7-1870
http://www.wikidata.org/entity/Q1568932,Battle of Lowestoft,52.48333333,2.916666667,13-6-1665
http://www.wikidata.org/entity/Q1570898,Battle of Dezful,32.38333333,48.46666667,22-09-1980
http://www.wikidata.org/entity/Q15727825,Battle of Fürth,49.4667,11.0167,3-9-1632
http://www.wikidata.org/entity/Q1575537,Battle of La Roche-Derrien,48.74638889,-3.26,20-6-1347
http://www.wikidata.org/entity/Q1576383,Battle of Olszynka Grochowska,52.24861111,21.10777778,25-2-1831
http://www.wikidata.org/entity/Q1576717,Battle of Dungeness,50.99777778,0.994166667,10-12-1652
http://www.wikidata.org/entity/Q1577800,Battle of Racławice,50.31055556,20.22888889,4-4-1794
http://www.wikidata.org/entity/Q15796206,,54.11666667,-9.166666667,24-8-1798
http://www.wikidata.org/entity/Q158054,Battle of Lissa,43.17638889,16.05333333,20-7-1866
http://www.wikidata.org/entity/Q15816796,Meximieux battle,45.90527778,5.195277778,02-09-1944
http://www.wikidata.org/entity/Q1581815,Battle of the Lys,51.055,3.73416667,23-05-1940
http://www.wikidata.org/entity/Q1582511,Battle of Ctesiphon,33.093611,44.580833,22-11-1915
http://www.wikidata.org/entity/Q1583955,Battle of Rocquencourt,48.8211,2.1311,20-3-1815
http://www.wikidata.org/entity/Q1584586,Battle of Jüterbog,51.9933,13.0728,23-11-1644
http://www.wikidata.org/entity/Q1586264,Battle of Cassel,50.800556,2.488333,11-4-1677
http://www.wikidata.org/entity/Q1587893,Battle of Tinchebray,48.76525,-0.727833333,28-9-1106
http://www.wikidata.org/entity/Q15890862,,37.25,15.2167,15-5-1287
http://www.wikidata.org/entity/Q15890877,,41.744,1.515,18-3-1465
http://www.wikidata.org/entity/Q15895729,,41.468,1.927,1-1-1114
http://www.wikidata.org/entity/Q15896585,,40.98333333,22.86666667,04-11-1944
http://www.wikidata.org/entity/Q15899584,,39.466666,0.4,25-12-1348
http://www.wikidata.org/entity/Q159072,Battle of Ulm,48.3833,9.9833,16-10-1805
http://www.wikidata.org/entity/Q1591145,Battle of Cartagena (209 BC),37.6,-0.981944444,1-1--217
http://www.wikidata.org/entity/Q15948740,,38.87222222,22.23944444,1-1-1821
http://www.wikidata.org/entity/Q15948782,,37.702046,27.053803,27-7-1821
http://www.wikidata.org/entity/Q159512,Battle of Legnica,51.14527778,16.22277778,9-4-1241
http://www.wikidata.org/entity/Q15980725,Skirmish of Todos Santos,23.44861111,-110.2233333,30-3-1848
http://www.wikidata.org/entity/Q15991321,,38.52638889,22.26277778,05-08-1944
http://www.wikidata.org/entity/Q160011,Battle of the Falkland Islands,-52.49944444,-56.16638889,08-12-1914
http://www.wikidata.org/entity/Q1600541,Action of the Hohenzollern Redoubt,50.497518,2.776997,25-09-1915
http://www.wikidata.org/entity/Q160077,fall of Constantinople,41.0167,28.9769,6-4-1453
http://www.wikidata.org/entity/Q160387,battle of Actium,38.93444444,20.73861111,29-8--29
http://www.wikidata.org/entity/Q1606958,Battle of Bogesund,57.77,13.3953,19-1-1520
http://www.wikidata.org/entity/Q16086807,Battle of Orašje,44.982072,18.72669,05-05-1995
http://www.wikidata.org/entity/Q16113803,Battle for Vozuća,44.3783,18.3669,01-07-1995
http://www.wikidata.org/entity/Q1612417,Battle of Fleurus,50.48333333,4.55,1-9-1688
http://www.wikidata.org/entity/Q161325,Battle of Ramillies,50.63861111,4.912777778,23-5-1706
http://www.wikidata.org/entity/Q1613521,Battle of Roslin,55.85,-3.16666667,4-3-1303
http://www.wikidata.org/entity/Q16145135,Battle of El Albujón,37.7175,-1.04762,21-9-1706
http://www.wikidata.org/entity/Q1618294,Battle of Sudoměř,49.24194444,14.06388889,25-3-1420
http://www.wikidata.org/entity/Q1618756,Battle of Meung-sur-Loire,47.8294,1.69917,15-6-1429
http://www.wikidata.org/entity/Q1620408,Battle of Chesma,38.31666667,26.3,16-7-1770
http://www.wikidata.org/entity/Q16208754,Battle of the Lake of Two Mountains,45.45,-73.94,16-10-1689
http://www.wikidata.org/entity/Q16208767,Battle of Lao Cai,22.22,104.09,01-02-1979
http://www.wikidata.org/entity/Q162284,Battle of Kiev (1941),50.4536,30.5164,07-08-1941
http://www.wikidata.org/entity/Q162287,Battle of Hürtgen Forest,50.70861111,6.362777778,14-09-1944
http://www.wikidata.org/entity/Q16245759,,38.85916667,21.17583333,01-09-1939
http://www.wikidata.org/entity/Q1625621,,48.05,14.4168,4-11-1805
http://www.wikidata.org/entity/Q1626179,Battle of Opequon,39.1956,-78.1325,12-4-1861
http://www.wikidata.org/entity/Q1626369,Battle of Fort Stevens,38.9641,-77.0288,12-7-1864
http://www.wikidata.org/entity/Q1628057,Battle of Monterrey,25.67138889,-100.3086111,24-4-1846
http://www.wikidata.org/entity/Q1628477,Battle of Diu,20,71,3-2-1509
http://www.wikidata.org/entity/Q1631029,Battle of Perryville,37.6752,-84.9711,8-10-1862
http://www.wikidata.org/entity/Q1631158,Battle of Nájera,42.41666667,-2.73333333,3-4-1367
http://www.wikidata.org/entity/Q16331867,,37.51666667,22.58333333,17-05-1944
http://www.wikidata.org/entity/Q1634629,Battle of Medina Ridge,30.17416667,46.935,27-02-1991
http://www.wikidata.org/entity/Q1635231,Battle of Hexham,54.97,-2.1,15-5-1464
http://www.wikidata.org/entity/Q1635922,Action of March 1677,11.25,-60.667,3-3-1677
http://www.wikidata.org/entity/Q1636652,Battle of Steenkerque,50.63333333,4.06666667,3-8-1692
http://www.wikidata.org/entity/Q1637986,Battle of Satala,40.05,39.6,1-1-530
http://www.wikidata.org/entity/Q1638488,Battle of Monmouth,40.25888889,-74.27527778,28-6-1778
http://www.wikidata.org/entity/Q163959,Battle of Héricourt,47.5833,6.76667,13-11-1474
http://www.wikidata.org/entity/Q1641241,Battle of Guadalajara,40.6333,-3.16667,01-07-1936
http://www.wikidata.org/entity/Q1642290,Battle of Fleurus,50.483,4.55,29-8-1622
http://www.wikidata.org/entity/Q1643008,Battle of the Gebora,38.879,-6.967,19-2-1811
http://www.wikidata.org/entity/Q16470,Normandy landings,49.33333333,-0.566944444,06-06-1944
http://www.wikidata.org/entity/Q16471,Invasion of Normandy,49.33333333,-0.566666667,06-06-1944
http://www.wikidata.org/entity/Q1647177,Battle of Casaglia,44.83333333,11.61666667,12-4-1815
http://www.wikidata.org/entity/Q1647769,Battle of Forts Jackson and St. Philip,29.3573,-89.4594,12-4-1861
http://www.wikidata.org/entity/Q16489568,Battle of Boquerón,-26.86666667,-58.3,16-7-1866
http://www.wikidata.org/entity/Q1649183,Battle of Cuddalore (1783),11.75,79.75,20-6-1783
http://www.wikidata.org/entity/Q16497164,Battle of Montese,44.26666667,10.93333333,01-09-1939
http://www.wikidata.org/entity/Q164983,Gallipoli campaign,40.36722222,26.455,25-04-1915
http://www.wikidata.org/entity/Q16510504,,48.8,2.29,19-7-1870
http://www.wikidata.org/entity/Q1651134,Battle of Roosebeke,50.791,4.90149,27-11-1382
http://www.wikidata.org/entity/Q16531803,,48.7256,4.58528,28-07-1914
http://www.wikidata.org/entity/Q1653331,Battle of the Yser,51.1528,2.72306,16-10-1914
http://www.wikidata.org/entity/Q165549,Battle of the Bzura,52.2333,19.3667,09-09-1939
http://www.wikidata.org/entity/Q166015,Battle of Lesnaya,53.55,30.91666667,28-9-1708
http://www.wikidata.org/entity/Q1660323,Battle of Niquitao,9.253333333,-70.25,2-7-1813
http://www.wikidata.org/entity/Q1660792,Battle of Cirta,36.3675,6.61194444,1-1--217
http://www.wikidata.org/entity/Q1669385,Battle of Dinant,50.25,4.9,23-08-1914
http://www.wikidata.org/entity/Q166961,Battle of Shrewsbury,52.7475,-2.7185,21-7-1403
http://www.wikidata.org/entity/Q1670862,Battle of Hlobane,-27.698889,30.95,11-1-1879
http://www.wikidata.org/entity/Q167143,Raid on Berlin,52.5186,13.4081,29-8-1756
http://www.wikidata.org/entity/Q1671704,Battle of Nemea,37.8089,22.7103,1-1--394
http://www.wikidata.org/entity/Q167259,Battle of Lützen (1632),51.2525,12.1375,16-11-1632
http://www.wikidata.org/entity/Q1678637,Battle of Dorylaeum,39.78333333,30.51666667,25-10-1147
http://www.wikidata.org/entity/Q16800650,Battle of Mariupol (May–June 2014),47.13055556,37.56388889,06-05-2014
http://www.wikidata.org/entity/Q16856667,,53.13833333,11.26333333,1-1-1618
http://www.wikidata.org/entity/Q169023,Battle of Talavera,39.96666667,-4.83333333,28-7-1809
http://www.wikidata.org/entity/Q1692857,Battle of Losecoat Field,52.68611111,-0.536111111,12-3-1470
http://www.wikidata.org/entity/Q1694094,Second Battle of the Aisne,49.4,3.6,16-04-1917
http://www.wikidata.org/entity/Q169602,Battle of Jakobstadt,56.50361111,25.87083333,5-8-1704
http://www.wikidata.org/entity/Q17001322,First Battle of Donetsk Airport,48.075,37.72555556,26-05-2014
http://www.wikidata.org/entity/Q1700886,Battle of Soltau,53.0576,9.7725,8-7-1519
http://www.wikidata.org/entity/Q170400,Battle of Kunersdorf,52.35305556,14.61277778,23-8-1759
http://www.wikidata.org/entity/Q1708064,Battle of Quebec,46.9667,-71.2667,24-10-1690
http://www.wikidata.org/entity/Q1710916,Battle of Cedar Creek,39.0193,-78.3043,19-10-1864
http://www.wikidata.org/entity/Q171416,Battle of Trafalgar,36.29299,-6.25534,21-10-1805
http://www.wikidata.org/entity/Q17184066,Battle of Prairie Dog Creek,45.26944444,-106.6241667,1-1-1876
http://www.wikidata.org/entity/Q1720027,Battle of Paju,57.82014444,26.11162778,31-01-1919
http://www.wikidata.org/entity/Q1723307,Battle of Metz,49.12027778,6.17777778,01-09-1939
http://www.wikidata.org/entity/Q173034,Battle of Midway,28.2,-177.35,01-09-1939
http://www.wikidata.org/entity/Q173077,Battle of Tours,47.39361111,0.68916667,25-10-732
http://www.wikidata.org/entity/Q17346979,Battle of Neuville,46.42,-71.5833,29-8-1756
http://www.wikidata.org/entity/Q1740516,Battle of Honnecourt,50.0375,3.19639,26-5-1642
http://www.wikidata.org/entity/Q174574,Battle of Freiburg,47.9955,7.8522,1-1-1618
http://www.wikidata.org/entity/Q1748450,Battle of Hedgeley Moor,55.471,-1.924,25-4-1464
http://www.wikidata.org/entity/Q17484681,Battle in Shakhtarsk Raion,48.0064,38.4795,16-07-2014
http://www.wikidata.org/entity/Q17510269,Siege of Ahmednagar,19.095,74.755,8-8-1803
http://www.wikidata.org/entity/Q17515423,Battle of Argaon,16.778999,73.64553,1-1-1803
http://www.wikidata.org/entity/Q1752689,Battle of Nashville,36.0881,-86.8098,12-4-1861
http://www.wikidata.org/entity/Q1752783,Battle of the Chateauguay,45.15861111,-73.92861111,26-10-1813
http://www.wikidata.org/entity/Q1752889,Battle of Kos,36.79088,27.07123,03-10-1943
http://www.wikidata.org/entity/Q1753578,Battle of the Bismarck Sea,-7.25,148.25,02-03-1943
http://www.wikidata.org/entity/Q1754313,Battle of Bennington,42.93861111,-73.30444444,16-8-1777
http://www.wikidata.org/entity/Q1754732,Battle of Agnadello,45.45,9.56667,14-5-1509
http://www.wikidata.org/entity/Q1754785,Battle of Breitenfeld (1642),51.3403,12.3748,1-1-1618
http://www.wikidata.org/entity/Q1758473,Battle of Hatfield Chase,53.585,-0.926,12-10-633
http://www.wikidata.org/entity/Q17594,Battle of Dresden,51.03333333,13.73333333,26-8-1813
http://www.wikidata.org/entity/Q1759660,Battle of Changsha,28.2,112.967,08-10-1941
http://www.wikidata.org/entity/Q1760231,Battle of Clontibret,54.349444,-6.654444,27-5-1595
http://www.wikidata.org/entity/Q1760280,Battle of Guastalla,44.91666667,10.66666667,19-9-1734
http://www.wikidata.org/entity/Q1761043,Battle of Algiers,36.77611111,3.06,07-01-1957
http://www.wikidata.org/entity/Q176216,Battle of Yellow Tavern,37.6599,-77.4552,11-5-1864
http://www.wikidata.org/entity/Q17627724,Battle of Ilovaisk,47.925,38.19722222,10-08-2014
http://www.wikidata.org/entity/Q1764042,Battle of Cape Palos,37.87166667,0.86666667,05-03-1938
http://www.wikidata.org/entity/Q176416,Battle of Sphacteria,36.93013611,21.665725,1-1--430
http://www.wikidata.org/entity/Q1767196,Battle of Bergendal,-25.73444444,30.09333333,27-08-1900
http://www.wikidata.org/entity/Q1767332,Battle of Landen,50.76666667,5.05,29-7-1693
http://www.wikidata.org/entity/Q176915,Battle of Tinian,15,145.6333333,24-07-1944
http://www.wikidata.org/entity/Q1770064,Battle of Otford,51.3167,0.183333,1-1-776
http://www.wikidata.org/entity/Q177470,Battle of Stoney Creek,43.218493,-79.764344,18-6-1812
http://www.wikidata.org/entity/Q1777327,Battle of Gavere,50.9333,3.65,23-7-1453
http://www.wikidata.org/entity/Q1778251,Battle of Älgarås,58.8167,14.2667,21-11-1205
http://www.wikidata.org/entity/Q1779409,Battle of Rocheserviere,46.93972222,-1.50805556,19-6-1815
http://www.wikidata.org/entity/Q1779439,Battle of The Cedars,45.306222,-74.054611,18-5-1776
http://www.wikidata.org/entity/Q17802702,Battle of Novoazovsk,47.11666667,38.08333333,25-08-2014
http://www.wikidata.org/entity/Q1780536,Battle of Hill 60,50.82138889,2.931666667,17-04-1915
http://www.wikidata.org/entity/Q1781080,Battle of Cape Spartel,35.9257,-5.9109,20-10-1782
http://www.wikidata.org/entity/Q1781894,Battle of Trevilian Station,38.05094444,-78.0745,12-4-1861
http://www.wikidata.org/entity/Q1782533,Battle of Ingavi,-16.63333333,-68.28333333,18-11-1841
http://www.wikidata.org/entity/Q1783252,Battle of Seneffe,50.5287063,4.2596054,11-8-1674
http://www.wikidata.org/entity/Q178510,Battle of Mohács,45.94138889,18.64722222,29-8-1526
http://www.wikidata.org/entity/Q1785910,Battle of Horseshoe Bend,32.97266667,-85.73661667,1-1-1813
http://www.wikidata.org/entity/Q1786801,Battle of the Crater,37.21825,-77.37768,12-4-1861
http://www.wikidata.org/entity/Q1787589,Battle of Aussig,50.6598,13.9648,16-6-1426
http://www.wikidata.org/entity/Q178842,Battle of Waterberg,-20.47666667,17.30805556,11-08-1904
http://www.wikidata.org/entity/Q178850,Battle of Salamis,37.95138889,23.56666667,1-1--479
http://www.wikidata.org/entity/Q1788933,Battle of Dertosa,40.8,0.51666667,1-1--217
http://www.wikidata.org/entity/Q1788937,Battle of the Marshes,31.5422,47.7067,22-09-1980
http://www.wikidata.org/entity/Q178912,Battle of Cape St. Vincent,36.81805556,-8.563611111,16-1-1780
http://www.wikidata.org/entity/Q1792643,Battle of Río Salado,36.05,-5.616666667,30-10-1340
http://www.wikidata.org/entity/Q179288,battle of Kosovo,42.63,21.12,15-6-1389
http://www.wikidata.org/entity/Q1795012,Battle of Getaria,43.3,-2.2,22-8-1638
http://www.wikidata.org/entity/Q179591,Battle of Cannae,41.30638889,16.1325,1-1--217
http://www.wikidata.org/entity/Q179670,Battle of Gaugamela,36.36,43.25,26-9--330
http://www.wikidata.org/entity/Q18015557,Battle of Horlivka,48.33361111,38.0925,20-07-2014
http://www.wikidata.org/entity/Q18016068,First Battle of Seoul,37.58333333,127,25-06-1950
http://www.wikidata.org/entity/Q180182,Battle of Iwo Jima,24.78333333,141.3166667,19-02-1945
http://www.wikidata.org/entity/Q180659,Battle of Wilson's Creek,37.09558638,-93.41008276,10-8-1861
http://www.wikidata.org/entity/Q18071930,Siege of Kobanê,36.88972222,38.35555556,01-09-2014
http://www.wikidata.org/entity/Q1808375,Battle of Solebay,52.4,1.8,7-6-1672
http://www.wikidata.org/entity/Q1808450,Battle of Buena Vista,25.33695833,-101.0464389,24-4-1846
http://www.wikidata.org/entity/Q1809645,Battle of Szack,51.4878,23.9297,01-09-1939
http://www.wikidata.org/entity/Q1811438,Battle of Waxhaws,34.74195278,-80.62579167,29-5-1780
http://www.wikidata.org/entity/Q1814334,Battle of Tomaszów Lubelski,50.45,23.4167,01-09-1939
http://www.wikidata.org/entity/Q1814482,Battle of Elba,42.75,10.23,6-9-1652
http://www.wikidata.org/entity/Q1814494,Battle of the Kentish Knock,51.5,1.2,8-10-1652
http://www.wikidata.org/entity/Q1814863,Battle of Stromboli,38.5375,14.42388889,8-1-1676
http://www.wikidata.org/entity/Q1818410,Battle of Maserfield,52.86,-3.054,5-8-642
http://www.wikidata.org/entity/Q18195753,Second Battle of Donetsk Airport,48.075,37.72555556,28-09-2014
http://www.wikidata.org/entity/Q1821843,Battle of Fort Pillow,35.6324,-89.8487,12-4-1864
http://www.wikidata.org/entity/Q182530,Battle of Badajoz,38.86666667,-6.96666667,14-08-1936
http://www.wikidata.org/entity/Q183286,Battle of Cēsis,57.31305556,25.27472222,05-06-1919
http://www.wikidata.org/entity/Q18330892,Battle of Hingston Down,50.521,-4.2473,1-1-838
http://www.wikidata.org/entity/Q1838038,Siege of Bergen-op-Zoom,51.5,4.3,18-7-1622
http://www.wikidata.org/entity/Q1840117,Battle of Quebec,46.8151,-71.20230556,19-4-1775
http://www.wikidata.org/entity/Q184320,Battle of Borodino,55.51666667,35.81666667,24-6-1812
http://www.wikidata.org/entity/Q1849818,Battle of Edgecote Moor,52.11444444,-1.247222222,26-7-1469
http://www.wikidata.org/entity/Q1850527,Battle of Baltimore,39.26319444,-76.57981389,15-9-1814
http://www.wikidata.org/entity/Q1850800,Battle of the Saintes,15.78333333,-61.6,12-4-1782
http://www.wikidata.org/entity/Q18536369,Battle of Donetsk Airport,48.075,37.72555556,26-05-2014
http://www.wikidata.org/entity/Q18572820,,37.95,23.7,24-07-1944
http://www.wikidata.org/entity/Q1860316,Battle of Dogger Bank,54.724,2.769,5-8-1781
http://www.wikidata.org/entity/Q186107,Battle of Stockach,47.75555556,7.57722222,25-3-1799
http://www.wikidata.org/entity/Q1862475,Battle of Marsaglia,44.45,7.96667,4-10-1693
http://www.wikidata.org/entity/Q18639122,Battle of Ramadi,33.41666667,43.3,21-11-2014
http://www.wikidata.org/entity/Q18639292,Hohenzollern Redoubt,50.4583,2.79417,02-03-1916
http://www.wikidata.org/entity/Q18657971,Battle of West Suiyuan,40.8106,111.652,07-07-1937
http://www.wikidata.org/entity/Q1870843,Battle of Chusto-Talasah,36.2823,-95.9502,12-4-1861
http://www.wikidata.org/entity/Q18745372,,38.1167,13.3667,1-1-535
http://www.wikidata.org/entity/Q18748064,Battle of Sedemünder,52.188,9.5229,28-7-1260
http://www.wikidata.org/entity/Q188123,Battle of Villiers,48.8172,2.51556,19-7-1870
http://www.wikidata.org/entity/Q188495,Battle of Agincourt,50.46361111,2.141666667,1-1-1337
http://www.wikidata.org/entity/Q1885831,Battle of Gerberoy,49.53416667,1.849722222,9-5-1435
http://www.wikidata.org/entity/Q1886703,Battle of Sulci,39.0667,8.45,1-1--263
http://www.wikidata.org/entity/Q1887009,Battle of Morlaix,48.5783,-3.82667,30-9-1342
http://www.wikidata.org/entity/Q1887057,Battle of Halidon Hill,55.78579,-2.05178,27-7-1333
http://www.wikidata.org/entity/Q1887494,Battle of Uji,34.88083333,135.7794444,23-6-1180
http://www.wikidata.org/entity/Q1887701,Battle of Naxos,37.106821,25.375576,1-12--378
http://www.wikidata.org/entity/Q1887932,Battle of Castelfidardo,43.46416667,13.54611111,18-9-1860
http://www.wikidata.org/entity/Q18920234,Battle of Labuan,5.32028,115.211,10-06-1945
http://www.wikidata.org/entity/Q18920465,Battle of Debaltseve,48.379941,38.345375,16-01-2015
http://www.wikidata.org/entity/Q1892080,Battle of Coutras,45.04083333,-0.128888889,20-10-1587
http://www.wikidata.org/entity/Q1892489,Battle of Grand Couronné,48.6667,6.16667,04-09-1914
http://www.wikidata.org/entity/Q1894062,Battle of Tagliacozzo,42.06944444,13.25472222,23-8-1268
http://www.wikidata.org/entity/Q1894305,Battle of Athens,40.585,-91.696,12-4-1861
http://www.wikidata.org/entity/Q1895789,Battle of Faventia,44.28333333,11.88333333,1-1-535
http://www.wikidata.org/entity/Q1898572,Battle of Wijnendale,51.0922,3.06611,28-9-1708
http://www.wikidata.org/entity/Q190712,First Battle of the Marne,49.01666667,3.383333333,05-09-1914
http://www.wikidata.org/entity/Q1919712,,51.0342,3.5475,1-1-1337
http://www.wikidata.org/entity/Q192473,Battle of Adrianople,41.8,26.6,10-8-378
http://www.wikidata.org/entity/Q192660,Battle of Okinawa,26.5,128,26-03-1945
http://www.wikidata.org/entity/Q192938,Battle of the Granicus,40.22805556,27.24222222,1-5--333
http://www.wikidata.org/entity/Q1930278,Battle of Karameh,31.9516,35.580208,21-03-1968
http://www.wikidata.org/entity/Q1933601,Battle of Alkmaar,52.63444444,4.746388889,2-10-1799
http://www.wikidata.org/entity/Q1934345,Battle of Malvern Hill,37.4124,-77.2509,1-7-1862
http://www.wikidata.org/entity/Q193993,Battle of Pea Ridge,36.4532,-94.0158,6-3-1862
http://www.wikidata.org/entity/Q194226,Battle of Yarmouk,32.81416667,35.95472222,15-8-636
http://www.wikidata.org/entity/Q194329,Battle of Five Forks,37.13944444,-77.62277778,1-4-1865
http://www.wikidata.org/entity/Q1945426,Hill 262,48.84194444,0.15805556,19-08-1944
http://www.wikidata.org/entity/Q1945485,Battle of Bajaur,34.68333333,71.5,07-08-2008
http://www.wikidata.org/entity/Q1954336,First Battle of Fort Wagner,32.73,-79.871,10-7-1863
http://www.wikidata.org/entity/Q1960626,Battle of Wertingen,48.5556,10.6792,8-10-1805
http://www.wikidata.org/entity/Q1967790,Battle of Oliwa,54.352025,18.646638,28-11-1627
http://www.wikidata.org/entity/Q1968883,Battle of Methven,56.42014,-3.58201,27-6-1306
http://www.wikidata.org/entity/Q1970005,Battle of Keren,15.77666667,38.45111111,01-09-1939
http://www.wikidata.org/entity/Q1970159,Battle of Grenada,12.05,-61.75,6-7-1779
http://www.wikidata.org/entity/Q1970207,Battle of Cross Keys,38.3579,-78.8438,12-4-1861
http://www.wikidata.org/entity/Q1970470,New Georgia Campaign,-8.5,157.333,01-09-1939
http://www.wikidata.org/entity/Q1971773,Battle of Maravar Pass,34.87055556,71.21666667,22-04-1985
http://www.wikidata.org/entity/Q1972070,Battle of Lutetia,48.85,2.35,1-1--57
http://www.wikidata.org/entity/Q1973800,Battle of the Yellow Ford,54.384,-6.945,10-8-1598
http://www.wikidata.org/entity/Q1974201,Battle of Geronium,41.6997,14.6111,1-1--217
http://www.wikidata.org/entity/Q1975663,Battle of Al Qaim,34.22,41.05388889,20-03-2003
http://www.wikidata.org/entity/Q1978178,Battle of Revolax,64.71805556,24.96388889,21-2-1808
http://www.wikidata.org/entity/Q19823647,Battle of Mount Haemus,42.7,25,1-1--334
http://www.wikidata.org/entity/Q19838810,,35.28638889,24.37469444,17-6-1821
http://www.wikidata.org/entity/Q1983926,Battle of Sidi Bou Zid,34.86666667,9.48333333,17-02-1943
http://www.wikidata.org/entity/Q1985934,Battle of Winchelsea,50.874,0.817,29-8-1350
http://www.wikidata.org/entity/Q1987213,Battle of Dyrrhachium,41.3,19.5,18-10-1081
http://www.wikidata.org/entity/Q1988331,Battle of Doiran,41.21472222,22.74416667,09-08-1916
http://www.wikidata.org/entity/Q1988630,Battle of Doiran,41.1875,22.7206,22-04-1917
http://www.wikidata.org/entity/Q1988859,Battle of Guillemont,50.01377778,2.824444444,03-09-1916
http://www.wikidata.org/entity/Q1989637,Battle of Festubert,50.54388889,2.73611111,27-05-1915
http://www.wikidata.org/entity/Q1989784,Battle of Moreuil Wood,49.7831,2.5,28-07-1914
http://www.wikidata.org/entity/Q1991963,Battle of Corbridge,54.974092,-2.017064,1-1-918
http://www.wikidata.org/entity/Q1992231,Battle of Albert,49.993,2.712,01-07-1916
http://www.wikidata.org/entity/Q19926256,Palmyra offensive,34.56,38.26722222,13-05-2015
http://www.wikidata.org/entity/Q199371,Battle of Megiddo,32.4,34.883,19-09-1918
http://www.wikidata.org/entity/Q19968351,Battle of Mosega,-26.05,25.63333333,17-1-1837
http://www.wikidata.org/entity/Q19968374,Battle of Kermt,50.9478,5.2536,8-8-1831
http://www.wikidata.org/entity/Q1998995,Battle of Thiepval Ridge,50.05452778,2.688388889,28-07-1914
http://www.wikidata.org/entity/Q1999020,Battle of the Hills,49,4,17-04-1917
http://www.wikidata.org/entity/Q1999889,Battle of Santiago de Cuba,20.02833333,-75.82055556,25-4-1898
http://www.wikidata.org/entity/Q2000189,Battle of Glendale,37.43791,-77.23812,12-4-1861
http://www.wikidata.org/entity/Q200032,battle of Manzikert,39.14472222,42.53916667,26-8-1071
http://www.wikidata.org/entity/Q200056,Battle of Zama,36.29888889,9.449166667,1-1--217
http://www.wikidata.org/entity/Q20011035,Battle of Lake Tunis,36.81666667,10.25,1-1--148
http://www.wikidata.org/entity/Q2002331,Battle of the Alte Veste,49.45277778,10.96527778,9-9-1632
http://www.wikidata.org/entity/Q2003416,Battle of Portland,50.4,-2.5,28-2-1653
http://www.wikidata.org/entity/Q2003883,Battle of Hancock,39.6957,-78.177,6-1-1862
http://www.wikidata.org/entity/Q2003949,Battle of Le Cateau,50.1042,3.54444,26-08-1914
http://www.wikidata.org/entity/Q2004436,Battle of Vyborg Bay,60.58333333,28.51666667,4-7-1790
http://www.wikidata.org/entity/Q200682,Battle of Queenston Heights,43.16192,-79.05049,13-10-1812
http://www.wikidata.org/entity/Q2007565,Battle of Mons-en-Pévèle,50.47944444,3.102222222,18-8-1304
http://www.wikidata.org/entity/Q2008158,Moonsund Landing Operation,58.5,23,29-09-1944
http://www.wikidata.org/entity/Q200855,battle of Vienna,48.2761,16.3333,12-9-1683
http://www.wikidata.org/entity/Q2010256,Battle of South Mills,36.4304,-76.3033,12-4-1861
http://www.wikidata.org/entity/Q2011177,Battle of Kostiuchnówka,51.35444444,25.75388889,04-07-1916
http://www.wikidata.org/entity/Q20112888,Battle of Kvam,61.66666667,9.68333333,25-04-1940
http://www.wikidata.org/entity/Q2013252,Battle of White Hall,35.2272,-77.8464,12-4-1861
http://www.wikidata.org/entity/Q201526,Battle of Issus,36.837894,36.211109,31-10--332
http://www.wikidata.org/entity/Q201692,Battle of Poitiers,46.53,0.4,19-9-1356
http://www.wikidata.org/entity/Q2018804,Battle of Mill Springs,37.0562,-84.7383,12-4-1861
http://www.wikidata.org/entity/Q2026080,Operation Faustschlag,49,32,18-02-1918
http://www.wikidata.org/entity/Q2026904,Battle of Tannenberg Line,59.37555556,27.85472222,25-07-1944
http://www.wikidata.org/entity/Q2026919,Battle of Grozny,43.31666667,45.7,26-11-1994
http://www.wikidata.org/entity/Q203225,Battle of Stamford Bridge,53.989,-0.903,25-9-1066
http://www.wikidata.org/entity/Q203233,Battle of Plassey,23.8,88.25,23-6-1757
http://www.wikidata.org/entity/Q203234,Battle of Épehy,50,3.11667,08-08-1918
http://www.wikidata.org/entity/Q2032592,Battle of Talavera de la Reina,39.95833333,-4.832777778,03-09-1936
http://www.wikidata.org/entity/Q2032618,Battle of Hannut,50.6667,5.0833,12-05-1940
http://www.wikidata.org/entity/Q2032681,Battle of Bantam,-6,106.2,27-12-1601
http://www.wikidata.org/entity/Q2032683,Battle of Málaga,36.7167,-4.41667,03-02-1937
http://www.wikidata.org/entity/Q2034641,Battle of Vedrosha,54.81861112,33.47694445,14-7-1500
http://www.wikidata.org/entity/Q2035455,Battle of Kings Mountain,35.11935,-81.39359,7-10-1780
http://www.wikidata.org/entity/Q203681,Battle of Pharsalus,39.3,22.38333333,8-1--48
http://www.wikidata.org/entity/Q203729,Battle of Kadesh,34.555487,36.498028,1-1--4000
http://www.wikidata.org/entity/Q2038907,Battle of Wuhan,30.5667,114.267,27-10-1938
http://www.wikidata.org/entity/Q20431212,,39.7,8.7,1-1-1470
http://www.wikidata.org/entity/Q2043320,Battle of Jackson,,,
http://www.wikidata.org/entity/Q2043711,Battle of Tampere,61.5,23.75,08-03-1918
http://www.wikidata.org/entity/Q204636,Battle of Plataea,38.24,23.318,1-1--479
http://www.wikidata.org/entity/Q2053030,Battle of Givenchy,50.5294,2.75861,22-12-1914
http://www.wikidata.org/entity/Q2053203,Battle of Milazzo,38.21666667,15.23333333,15-10-1718
http://www.wikidata.org/entity/Q205379,Battle of Breitenfeld (1631),51.4,12.33333333,1-1-1618
http://www.wikidata.org/entity/Q205422,Battle of the Little Bighorn,45.565,-107.4288889,25-6-1876
http://www.wikidata.org/entity/Q205887,Battle of Carrhae,36.866667,39.033333,9-5--52
http://www.wikidata.org/entity/Q2060419,Battle of Brunete,40.4,-3.98333,06-07-1937
http://www.wikidata.org/entity/Q2060704,Battle of Kowel,49.83,24.01416667,24-07-1916
http://www.wikidata.org/entity/Q2060946,Battle of Mérida,38.9,-6.33333,10-08-1936
http://www.wikidata.org/entity/Q2063236,Majuba Hill,-27.4616,29.8613,27-2-1881
http://www.wikidata.org/entity/Q2063617,Battle of the Gabbard,51.95,1.75,12-6-1653
http://www.wikidata.org/entity/Q2064142,Battle of Halmyros,39.1587,22.8401,23-3-1311
http://www.wikidata.org/entity/Q2064362,Battle of Texel,53.15,4.6,21-8-1673
http://www.wikidata.org/entity/Q2066129,Battle of St. Quentin,49.8486,3.28639,10-8-1557
http://www.wikidata.org/entity/Q2067472,Battle of Tampa,27.9415,-82.4559,30-6-1862
http://www.wikidata.org/entity/Q2068122,Battle of Najaf,32,44.33333333,20-03-2003
http://www.wikidata.org/entity/Q207165,Battle of the Coral Sea,-16.26666667,162.3333333,01-09-1939
http://www.wikidata.org/entity/Q2072080,Battle of San Domingo,18.3,-70.05,6-2-1806
http://www.wikidata.org/entity/Q207250,Battle of Lake Trasimene,43.2025,12.11777778,1-1--217
http://www.wikidata.org/entity/Q2072513,Battle of Ruvo,41.11666667,16.48333333,23-2-1503
http://www.wikidata.org/entity/Q2074041,Battle of the Basque Roads,46,-1.1917,12-4-1809
http://www.wikidata.org/entity/Q207576,Siege of Vienna,48.2083,16.3731,17-10-1529
http://www.wikidata.org/entity/Q2079873,Battle of Orthez,43.48805556,-0.770833333,27-2-1814
http://www.wikidata.org/entity/Q2080325,Siege of Fort William Henry,43.42027778,-73.71111111,3-8-1757
http://www.wikidata.org/entity/Q2080397,Battle of Syracuse,37.0662275,15.2842881,9-11-1710
http://www.wikidata.org/entity/Q2081621,Battle of Vyborg Bay,60.58333333,28.5,01-07-1944
http://www.wikidata.org/entity/Q2081944,Battle of Aqaba,29.51666667,35,06-07-1917
http://www.wikidata.org/entity/Q2083930,Battle of Nietjärvi,61.615,31.491,15-07-1944
http://www.wikidata.org/entity/Q208529,Battle of Dunkirk,51.0343,2.376819444,26-05-1940
http://www.wikidata.org/entity/Q2086785,Battle of Bauds,57.649,-2.893,1-1-962
http://www.wikidata.org/entity/Q2089020,Battle of Mecca,21.4225,39.82611111,10-06-1916
http://www.wikidata.org/entity/Q2090505,Battle of Guttstadt-Deppen,53.98333333,20.4,7-6-1807
http://www.wikidata.org/entity/Q2091661,Battle of Damme,51.33358889,3.381813889,31-5-1213
http://www.wikidata.org/entity/Q2092043,Battle of Arques,50.73555556,2.3025,4-4-1303
http://www.wikidata.org/entity/Q209359,Battle of Vimeiro,39.175,-9.31667,20-8-1808
http://www.wikidata.org/entity/Q2093780,Battle of Skuleni,47.31666667,27.63333333,1-1-1821
http://www.wikidata.org/entity/Q2094032,Battle of Damascus,33.51222222,36.29833333,29-07-2012
http://www.wikidata.org/entity/Q2095240,Battle of Cornus,40.093333,8.508056,1-1--217
http://www.wikidata.org/entity/Q2095678,Battle of Assaye,20.236,75.887,23-9-1803
http://www.wikidata.org/entity/Q2096337,Battle of Bantry Bay,51.65,-9.71666667,11-5-1689
http://www.wikidata.org/entity/Q2096397,Battles of Latrun,31.83844167,34.98075278,24-05-1948
http://www.wikidata.org/entity/Q209721,Battle of Cabezón,41.7333,-4.64639,12-6-1808
http://www.wikidata.org/entity/Q20984992,,38.84166667,-0.519722222,25-7-1836
http://www.wikidata.org/entity/Q2102607,First Battle of Rappahannock Station,38.5272,-77.8302,12-4-1861
http://www.wikidata.org/entity/Q21029691,Battle of Tangier,35.78472222,-5.8125,4-5-1664
http://www.wikidata.org/entity/Q21030182,Battle of Kunduz,36.73333333,68.86666667,24-04-2015
http://www.wikidata.org/entity/Q210354,Battle of Kulikovo,53.6525,38.6535,16-9-1380
http://www.wikidata.org/entity/Q2105475,Battle of Azaz,36.58611111,37.04472222,23-07-2012
http://www.wikidata.org/entity/Q2112104,Battle of Staten Island,40.57628056,-74.14483889,22-8-1777
http://www.wikidata.org/entity/Q211219,Battle of Chinsurah,22.9,88.39,25-11-1759
http://www.wikidata.org/entity/Q211220,Battle of Chandannagar,22.855886,88.38,29-8-1756
http://www.wikidata.org/entity/Q2117322,Battle of Yashima,34.35,134.05,22-3-1185
http://www.wikidata.org/entity/Q2119353,Battle of Sena Gallica,43.71666667,13.21666667,1-1-535
http://www.wikidata.org/entity/Q212220,Battle of Nicopolis,43.70583333,24.89583333,25-9-1396
http://www.wikidata.org/entity/Q2125491,Battle of Front Royal,38.936,-78.1923,12-4-1861
http://www.wikidata.org/entity/Q213074,Battle of the Hydaspes,32.82777778,73.63888889,1-5--325
http://www.wikidata.org/entity/Q2132802,Battle of Meridian,32.3654,-88.7043,12-4-1861
http://www.wikidata.org/entity/Q2140288,Battle of Williamsburg,37.2642,-76.6659,5-5-1862
http://www.wikidata.org/entity/Q2153101,Battle of Santa Clara,22.405278,-79.954167,28-12-1958
http://www.wikidata.org/entity/Q2164009,Battle of Lewes,50.87861111,-0.013888889,14-5-1264
http://www.wikidata.org/entity/Q2164344,Sand Creek massacre,38.54770833,-102.50635,29-11-1864
http://www.wikidata.org/entity/Q2164950,Battle of Lens,50.4322,2.83333,20-8-1648
http://www.wikidata.org/entity/Q2166177,Battle of Ulundi,-28.31666667,31.41666667,11-1-1879
http://www.wikidata.org/entity/Q21685887,,33.41666667,43.3,08-12-2015
http://www.wikidata.org/entity/Q2170921,Battle of Bristoe Station,38.7234,-77.5418,12-4-1861
http://www.wikidata.org/entity/Q2182031,Battle of Siikajoki,64.83333333,24.73333333,21-2-1808
http://www.wikidata.org/entity/Q2185405,Battle of Hatteras Inlet Batteries,35.1864,-75.7645,12-4-1861
http://www.wikidata.org/entity/Q2190013,Battle of Wyoming,41.25,-75.905,3-7-1778
http://www.wikidata.org/entity/Q219697,Batalla De Las Navas de Tolosa,38.28443,-3.58286,16-7-1212
http://www.wikidata.org/entity/Q2204399,Battle of Neville's Cross,54.77599,-1.5971,17-10-1346
http://www.wikidata.org/entity/Q2204664,Battle of Leghorn,43.55,10.31666667,14-3-1653
http://www.wikidata.org/entity/Q2205730,Battle of Thoroughfare Gap,38.8243,-77.7148,12-4-1861
http://www.wikidata.org/entity/Q22082155,Battle of the Bell islands,47.6328,-52.9658,01-08-1942
http://www.wikidata.org/entity/Q22097614,Battle of Lekkerbeetje,51.66038,5.27044,1-1-1568
http://www.wikidata.org/entity/Q221469,First Battle of Bull Run,38.8147,-77.5227,12-4-1861
http://www.wikidata.org/entity/Q221703,Battle of the Ardennes,50.25,5.666666667,21-08-1914
http://www.wikidata.org/entity/Q221891,Second Battle of Artois,50.5,2.75,09-05-1915
http://www.wikidata.org/entity/Q221967,Brusilov Offensive,49.83,24.01416667,04-06-1916
http://www.wikidata.org/entity/Q222013,Battle of Bosworth Field,52.59111111,-1.410277778,22-8-1485
http://www.wikidata.org/entity/Q2221265,Battle of Cantigny,49.664,2.491,28-07-1914
http://www.wikidata.org/entity/Q222520,Battle of Bannockburn,56.092,-3.915,1-7-1314
http://www.wikidata.org/entity/Q2234138,Battle of Groningen,53.2186,6.56722,01-09-1939
http://www.wikidata.org/entity/Q2234632,Battle of Rymnik,45.39166667,27.06111111,22-9-1789
http://www.wikidata.org/entity/Q223622,Battle of Prague (1757),50.0878114,14.4204598,29-8-1756
http://www.wikidata.org/entity/Q2237017,,48.219,13.4894,30-10-1805
http://www.wikidata.org/entity/Q2237043,Battle of New Market,38.65515,-78.67825,12-4-1861
http://www.wikidata.org/entity/Q2237048,Battle of Ostrach,47.95,9.383333333,21-3-1799
http://www.wikidata.org/entity/Q2237082,,51.15277778,14.98722222,22-5-1813
http://www.wikidata.org/entity/Q2237094,Battle of Ostrołęka,53.0833,21.5833,26-5-1831
http://www.wikidata.org/entity/Q2237111,Battle of Plattsburgh,44.6804,-73.3756,11-9-1814
http://www.wikidata.org/entity/Q2237192,Battle of Moon Sound,58.601348,23.449978,19-10-1917
http://www.wikidata.org/entity/Q2237215,Battle of Rathenow,52.6,12.33333333,15-6-1675
http://www.wikidata.org/entity/Q2237223,First Battle of Quảng Trị,16.733,106.967,30-03-1972
http://www.wikidata.org/entity/Q2237268,Battle of Umm Qasr,30.02805556,47.93694444,20-03-2003
http://www.wikidata.org/entity/Q2237269,Battle of Abbeville,50.10527778,1.835277778,04-06-1940
http://www.wikidata.org/entity/Q2237301,,50.687222,7.645556,4-6-1796
http://www.wikidata.org/entity/Q2237467,Battle of Cassel,50.8,2.487222222,23-8-1328
http://www.wikidata.org/entity/Q2237484,Battle of Ceresole,44.8,7.81666667,11-4-1544
http://www.wikidata.org/entity/Q2237537,Battle of Fallen Timbers,41.54416667,-83.6975,20-8-1794
http://www.wikidata.org/entity/Q2237589,Battle of Limanowa,49.83,24.01416667,01-12-1914
http://www.wikidata.org/entity/Q2237614,Battle of Martyropolis,38.14222222,41.00138889,1-1-588
http://www.wikidata.org/entity/Q2237629,Battle of Mucellium,43.95,11.3833,1-1-535
http://www.wikidata.org/entity/Q2237649,Battle of Ulaş,45.66138889,20.79138889,1-1-1683
http://www.wikidata.org/entity/Q2237737,Battle of Sheikh Sa'ad,33.7,43.5,06-01-1916
http://www.wikidata.org/entity/Q2237798,Battle of Thebes,38.32416667,23.32361111,1-12--334
http://www.wikidata.org/entity/Q2238843,Battle of Brustem,50.80166667,5.2175,28-10-1467
http://www.wikidata.org/entity/Q2243497,Battle of Davis's Cross Roads,34.7557,-85.368,10-9-1863
http://www.wikidata.org/entity/Q2246615,Battle of Brunanburh,53.345069,-3.023987,1-1-937
http://www.wikidata.org/entity/Q2248041,Battle of Casalecchio,44.48333333,11.28333333,26-6-1402
http://www.wikidata.org/entity/Q2252463,Battle of Madonna dell'Olmo,44.38333333,7.55,30-9-1744
http://www.wikidata.org/entity/Q2253305,Battle of Richmond,37.6848,-84.2594,12-4-1861
http://www.wikidata.org/entity/Q2253682,Battle of Tettenhall,52.583333,-2.133333,5-8-910
http://www.wikidata.org/entity/Q2254950,Battle of Chios,38.4,26.01666667,1-1--200
http://www.wikidata.org/entity/Q2259031,Battle of Cascina,43.68,10.50027778,28-7-1364
http://www.wikidata.org/entity/Q2264459,Battle of Cerignola,41.26666667,15.9,28-4-1503
http://www.wikidata.org/entity/Q2265211,Battle of Entrames,47.99666667,-0.7125,26-10-1793
http://www.wikidata.org/entity/Q2265621,Battle of Køge Bay,55.517252,12.30982,1-7-1676
http://www.wikidata.org/entity/Q2265686,Battles of Barfleur and La Hogue,49.67111111,-1.26333333,29-5-1692
http://www.wikidata.org/entity/Q2280582,Battle of Velletri,41.66666667,12.78333333,11-8-1744
http://www.wikidata.org/entity/Q2284279,Battle of Fort Pulaski,32.02729,-80.89096,11-4-1862
http://www.wikidata.org/entity/Q2286332,Battle of Oravais,63.28273,22.37503,21-2-1808
http://www.wikidata.org/entity/Q2288966,Battle of Stoczek,51.96666667,21.96666667,14-2-1831
http://www.wikidata.org/entity/Q2291971,Battle of Ilerda,41.36666667,-0.5,1-6--48
http://www.wikidata.org/entity/Q2292026,Battle of the Gates of Trajan,42.35611111,23.91833333,17-8-986
http://www.wikidata.org/entity/Q2292185,Battle of Buckland Mills,38.74,-77.81,12-4-1861
http://www.wikidata.org/entity/Q2293850,Battle of Liberty,39.1931,-94.3842,12-4-1861
http://www.wikidata.org/entity/Q2297338,Combat of the Thirty,48,-3,1-1-1341
http://www.wikidata.org/entity/Q2305019,Battle of Curupaity,-27.11305556,-58.57444444,27-12-1864
http://www.wikidata.org/entity/Q2307727,Battle of Saint Charles,34.3715467,-91.126083,12-4-1861
http://www.wikidata.org/entity/Q2309898,Battle of Karánsebes,45.42138889,22.22194444,17-9-1788
http://www.wikidata.org/entity/Q2311362,,47.18527778,-1.860277778,25-11-1793
http://www.wikidata.org/entity/Q2311390,,26.7,-80.03333333,10-3-1783
http://www.wikidata.org/entity/Q2311799,Battle of Santander,43.45,-3.8,14-08-1937
http://www.wikidata.org/entity/Q2312517,Battle of San Pietro,44.8,10.3,29-6-1734
http://www.wikidata.org/entity/Q2312936,Battle of Cape Cherchell,36.90694444,2.20333333,07-09-1937
http://www.wikidata.org/entity/Q2313310,Battle of Selma,32.424,-87.0237,12-4-1861
http://www.wikidata.org/entity/Q2330778,Battle of Mantinea,37.6,22.4,1-1--213
http://www.wikidata.org/entity/Q2330975,Siege of Breda,51.56666667,4.8,1-1-1568
http://www.wikidata.org/entity/Q2331555,Battle of Neuve Chapelle,50.8641,2.8956,10-03-1915
http://www.wikidata.org/entity/Q233219,Second Battle of Ypres,50.891,2.979,21-04-1915
http://www.wikidata.org/entity/Q2333407,Battle of Churubusco,19.35555556,-99.14861111,20-8-1847
http://www.wikidata.org/entity/Q233343,Second Battle of Bull Run,38.81246,-77.52131,12-4-1861
http://www.wikidata.org/entity/Q233356,Battle of Lacolle Mills,45.067564,-73.343809,30-3-1814
http://www.wikidata.org/entity/Q233360,Second Battle of Corinth,34.97095,-88.52173,12-4-1861
http://www.wikidata.org/entity/Q2333674,Battle of Jonesborough,33.5307,-84.3621,12-4-1861
http://www.wikidata.org/entity/Q233373,Battle of Capua (211 BC),41.1,14.21666667,1-1--217
http://www.wikidata.org/entity/Q233379,Second Battle of Krithia,40.07888889,26.20388889,06-05-1915
http://www.wikidata.org/entity/Q233386,Battle of Herdonia (210 BC),41.31666667,15.63333333,1-1--217
http://www.wikidata.org/entity/Q233402,Battle of Nola (215 BC),40.93333333,14.53333333,1-1--217
http://www.wikidata.org/entity/Q233417,Battle of the Assunpink Creek,40.22166667,-74.75611111,2-1-1777
http://www.wikidata.org/entity/Q233430,Second Battle of Cape Finisterre,42.88222,-9.404297,25-10-1747
http://www.wikidata.org/entity/Q2334874,Battle of Tranter's Creek,35.6186,-77.1431,12-4-1861
http://www.wikidata.org/entity/Q233568,Battle of Hattin,32.80361111,35.44444444,4-7-1187
http://www.wikidata.org/entity/Q2337526,First Battle of the Aisne,49.43333333,3.666666667,13-09-1914
http://www.wikidata.org/entity/Q2337604,Battle of Hill 70,50.45555556,2.81902778,15-08-1917
http://www.wikidata.org/entity/Q234188,Battle of Sekigahara,35.36666667,136.4666667,21-10-1600
http://www.wikidata.org/entity/Q2342758,Battle of the Chernaya,44.46666667,33.85,16-8-1855
http://www.wikidata.org/entity/Q2342985,Battle of Ponte Novu,42.485,9.28,9-5-1769
http://www.wikidata.org/entity/Q2344279,Battle of Leros,37.13194444,26.85277778,26-09-1943
http://www.wikidata.org/entity/Q2346041,Battle of Fort Beauséjour,45.86550833,-64.29079167,16-6-1755
http://www.wikidata.org/entity/Q2347053,Battle of Callinicus,39.632098,22.419935,1-1--170
http://www.wikidata.org/entity/Q2351517,Battle of Lanckorona,49.845698,19.715431,23-5-1771
http://www.wikidata.org/entity/Q235344,Battle of the Alamola,29.42555556,-98.48611111,23-2-1836
http://www.wikidata.org/entity/Q2354105,Siege of Danzig,54.36666667,18.63333333,22-2-1734
http://www.wikidata.org/entity/Q2354422,Battle of the Dalmatian channels,43.05694444,16.85638889,14-11-1991
http://www.wikidata.org/entity/Q2354840,Battle of Ilomantsi,62.718,31.526,26-07-1944
http://www.wikidata.org/entity/Q2355732,Battle of Santa Rosa Island,30.3242,-87.2817,9-10-1861
http://www.wikidata.org/entity/Q2363420,2011 southern Israel cross-border attacks,29.5857,34.88137778,18-08-2011
http://www.wikidata.org/entity/Q2363492,Battle of El Guettar,34.33722222,8.952777778,23-03-1943
http://www.wikidata.org/entity/Q2363999,Battle of Fort Blair,37.0308,-94.735,12-4-1861
http://www.wikidata.org/entity/Q2364944,Battle of Cherbourg,49.7525,-1.695,12-4-1861
http://www.wikidata.org/entity/Q2366517,,46.64861111,-0.247777778,25-6-1793
http://www.wikidata.org/entity/Q2368123,Battle of Pinkie Cleugh,55.933,-3.023,20-9-1547
http://www.wikidata.org/entity/Q2371769,Battle of El Agheila,30.2667,19.2,11-12-1942
http://www.wikidata.org/entity/Q2373632,First Battle of Sabine Pass,29.7359,-93.8711,12-4-1861
http://www.wikidata.org/entity/Q2374330,Battle of Atlanta,33.7459,-84.3488,22-7-1864
http://www.wikidata.org/entity/Q2375910,Battle of Fougères,48.3525,-1.198611111,3-11-1793
http://www.wikidata.org/entity/Q2386251,Battle on the Zuiderzee,52.83333333,5.33333333,11-10-1573
http://www.wikidata.org/entity/Q2387020,Battle of Sarandí,-33.5012804,-56.2425101,10-12-1825
http://www.wikidata.org/entity/Q2387677,Siege of Calais,50.9475,1.855555556,1-6-1436
http://www.wikidata.org/entity/Q2388708,Battle of Salé,34.05,-6.816667,1-9-1260
http://www.wikidata.org/entity/Q2391801,Battle of Fort Duquesne,40.44162778,-80.01094444,13-9-1758
http://www.wikidata.org/entity/Q239255,Battle of Arras,50.28972222,2.780833333,09-04-1917
http://www.wikidata.org/entity/Q2392704,Battle of Corydon,38.199,-86.129,9-7-1863
http://www.wikidata.org/entity/Q2394918,Battle of Callao,-12.04777778,-77.15361111,2-5-1866
http://www.wikidata.org/entity/Q2399696,Battle of Contreras,19.41944444,-99.14555556,20-8-1847
http://www.wikidata.org/entity/Q2400227,,50.98638889,2.1275,8-8-1588
http://www.wikidata.org/entity/Q2406754,Battle of Truillas,42.6125,2.80917,22-9-1793
http://www.wikidata.org/entity/Q2408305,,47.66861111,-2.981388889,21-6-1815
http://www.wikidata.org/entity/Q2408799,Battle of the Misrata frontline,32.36666667,15.08333333,16-05-2011
http://www.wikidata.org/entity/Q2408921,Battle of Arques,49.88083333,1.125833333,29-9-1589
http://www.wikidata.org/entity/Q241108,Battle of Friedland,54.45,21.01666667,14-6-1807
http://www.wikidata.org/entity/Q2416094,Battle of Utica,37.05794444,10.06259722,8-1--48
http://www.wikidata.org/entity/Q2420736,Battle of Chantilly,38.86451,-77.36949,12-4-1861
http://www.wikidata.org/entity/Q2420811,Battle of Mount Tabor,32.61244722,35.326625,16-4-1799
http://www.wikidata.org/entity/Q2421665,,-25.9,28.15,12-2-1881
http://www.wikidata.org/entity/Q2425434,Battle of Longue-Pointe,45.562611,-73.530806,19-4-1775
http://www.wikidata.org/entity/Q2426213,Battle of Roan's Tan Yard,39.3246,-92.5584,12-4-1861
http://www.wikidata.org/entity/Q2426368,Battle of Bardia,31.76666667,25.1,01-09-1939
http://www.wikidata.org/entity/Q242644,Battle of Caporetto,46.21444444,13.6425,24-10-1917
http://www.wikidata.org/entity/Q2427013,Battle of Tudela,42.054925,-1.616330556,23-11-1808
http://www.wikidata.org/entity/Q2427731,Battle of Örlygsstaðir,65.501,-19.282,21-8-1238
http://www.wikidata.org/entity/Q2428651,,50.829,3.276,12-9-1015
http://www.wikidata.org/entity/Q2431866,Battle of Zierikzee,51.64972222,3.91638889,11-8-1304
http://www.wikidata.org/entity/Q243640,Second Battle of Sabine Pass,29.72051389,-93.87074722,12-4-1861
http://www.wikidata.org/entity/Q2439284,Battle of Leuven,50.86666667,4.7,12-8-1831
http://www.wikidata.org/entity/Q243979,Battle of the Nile,31.33333333,30.11666667,1-8-1798
http://www.wikidata.org/entity/Q244356,Battle of Ain Jalut,32.5964,35.2417,3-9-1260
http://www.wikidata.org/entity/Q2444672,Battle of Lutterberg,51.35,9.59972222,23-7-1762
http://www.wikidata.org/entity/Q2445761,Battle of Saucourt-en-Vimeu,50.10527778,1.835277778,3-8-881
http://www.wikidata.org/entity/Q2446643,Battle of Raate Road,64.84813611,29.32645833,30-11-1939
http://www.wikidata.org/entity/Q2448616,Battle of Dobrich,43.56666667,27.83333333,05-09-1916
http://www.wikidata.org/entity/Q2449358,Battle of Fort Necessity,39.81413889,-79.58710556,3-7-1754
http://www.wikidata.org/entity/Q2450584,Battle of Flirey,48.8764,5.84833,19-09-1914
http://www.wikidata.org/entity/Q2450777,Battle of the Nek,40.2414,26.288385,25-04-1915
http://www.wikidata.org/entity/Q2451530,Battle of Mojkovac,42.96,19.58,06-01-1916
http://www.wikidata.org/entity/Q2451867,Battle of Boonville,38.9765,-92.743,17-6-1861
http://www.wikidata.org/entity/Q2453661,Battle of Horodok,49.78333333,23.65,29-9-1655
http://www.wikidata.org/entity/Q2455332,Battle of Ginchy,50.02266667,2.832444444,28-07-1914
http://www.wikidata.org/entity/Q2457256,Battle of Orleans,47.90222222,1.904166667,1-1-463
http://www.wikidata.org/entity/Q245773,Battle of Alba de Tormes,40.83333333,-5.5,28-11-1809
http://www.wikidata.org/entity/Q2457962,Battle of Devil's Backbone,35.1785,-94.3106,12-4-1861
http://www.wikidata.org/entity/Q245811,Battle of Chemnitz,50.83333333,12.91666667,14-4-1639
http://www.wikidata.org/entity/Q245890,Battle of Heilbronn,49.15,9.216666667,01-09-1939
http://www.wikidata.org/entity/Q245898,Battle of Frankfurt,50.11361111,8.679722222,01-09-1939
http://www.wikidata.org/entity/Q246200,Battle of Medina de Rioseco,41.89416667,-4.993611111,14-7-1808
http://www.wikidata.org/entity/Q2462283,Third Battle of the Aisne,49.38333333,3.733333333,27-05-1918
http://www.wikidata.org/entity/Q246553,Battle of Nuremberg,49.45277778,11.07777778,01-09-1939
http://www.wikidata.org/entity/Q2467678,Battle of Bolimów,52.0764,20.1631,28-07-1914
http://www.wikidata.org/entity/Q2469718,Battle of Gainesville,29.65199444,-82.32506667,17-8-1864
http://www.wikidata.org/entity/Q247253,Battle of Khe Sanh,16.65544444,106.7285833,21-01-1968
http://www.wikidata.org/entity/Q2473448,Battle of Lissa,43.08916667,16.17166667,13-3-1811
http://www.wikidata.org/entity/Q247395,Battle of Hamburger Hill,16.25305556,107.1747222,10-05-1969
http://www.wikidata.org/entity/Q2477582,Battle of Francavilla,37.9,15.13333333,20-6-1719
http://www.wikidata.org/entity/Q2478491,Battle of Messana,38.18,15.56138889,1-1--264
http://www.wikidata.org/entity/Q247871,Battle of Talana Hill,-28.16388889,30.26777778,20-10-1899
http://www.wikidata.org/entity/Q2480286,Battle of Peralta,34.82638889,-106.6888889,12-4-1861
http://www.wikidata.org/entity/Q2480544,Battle of Ituzaingó,-30.245,-54.87472222,20-2-1827
http://www.wikidata.org/entity/Q2484108,Battle of Jutas,63.495556,22.524722,21-2-1808
http://www.wikidata.org/entity/Q2484240,Battle of Vertières,19.7333,-72.2244,18-11-1803
http://www.wikidata.org/entity/Q248712,Battle of Komarów,53.535,14.743889,26-08-1914
http://www.wikidata.org/entity/Q2488483,Battle of Columbus,31.83083333,-107.0019444,09-03-1916
http://www.wikidata.org/entity/Q248979,Battle of Modder River,-29.03916667,24.62638889,28-11-1899
http://www.wikidata.org/entity/Q2495510,Battle of Reval,59.43722222,24.745,13-5-1790
http://www.wikidata.org/entity/Q2496259,Battle of Dogger Bank,54.724,2.769,17-6-1696
http://www.wikidata.org/entity/Q2496378,,49.20722222,2.586666667,02-09-1914
http://www.wikidata.org/entity/Q2496774,Battle of Lipantitlán,27.965977,-97.816772,4-11-1835
http://www.wikidata.org/entity/Q2497334,Battle of Wana,32.30611111,69.59277778,16-03-2004
http://www.wikidata.org/entity/Q2497690,Battle of Ronaldsway,54.081,-4.618,8-10-1275
http://www.wikidata.org/entity/Q2498565,First Battle of Lamia,38.89722222,22.43111111,1-1--213
http://www.wikidata.org/entity/Q2498572,Second Battle of Lamia,38.89722222,22.43111111,1-1--213
http://www.wikidata.org/entity/Q250309,Battle of Tarawa,1.426944444,172.9755556,20-11-1943
http://www.wikidata.org/entity/Q2505574,Ambiorix's revolt,50.7794,5.4631,1-1--57
http://www.wikidata.org/entity/Q250652,Battle of Sarikamish,40.3381,42.573,22-12-1914
http://www.wikidata.org/entity/Q2510511,Battle of Abukir (1801),31.31055556,30.06833333,20-4-1792
http://www.wikidata.org/entity/Q251184,Battle of Signal Hill,47.56972222,-52.68194444,15-9-1762
http://www.wikidata.org/entity/Q2512802,Battle of Olustee,30.21423333,-82.38858889,20-2-1864
http://www.wikidata.org/entity/Q2522057,Battle of Campo Santo,44.78333333,11.13333333,8-2-1743
http://www.wikidata.org/entity/Q252698,Battle of Wesenberg,59.35055556,26.36111111,28-2-1268
http://www.wikidata.org/entity/Q2527770,Battle of Devina,42.91666667,26.45,17-7-1279
http://www.wikidata.org/entity/Q2528398,Battle of Al Mansurah,31.0456,31.3826,1-1-1248
http://www.wikidata.org/entity/Q2530200,Battle of Mentana,42.01666667,12.65,3-11-1867
http://www.wikidata.org/entity/Q2533670,Battle of Valea Albă,47.07833333,26.56027778,26-7-1476
http://www.wikidata.org/entity/Q2540993,Battle of Dry Wood Creek,37.8197,-94.4862,12-4-1861
http://www.wikidata.org/entity/Q254599,Battle of Shanghai,31.2323,121.469,13-08-1937
http://www.wikidata.org/entity/Q2546566,Battle of Mexico-city,19.41944444,-99.14555556,24-4-1846
http://www.wikidata.org/entity/Q254797,Battle of Le Bourget,48.9353,2.42556,27-9-1870
http://www.wikidata.org/entity/Q2548761,Battle of Sphacteria,36.93013889,21.66572222,1-1-1821
http://www.wikidata.org/entity/Q2551448,Battle of Kirksville,40.19,-92.6,12-4-1861
http://www.wikidata.org/entity/Q2551797,Siege of Yorktown,37.184,-76.534,5-4-1862
http://www.wikidata.org/entity/Q2553234,Battle of Culpeper Court House,38.47255556,-77.99313889,12-4-1861
http://www.wikidata.org/entity/Q2557155,Battle of Sedgemoor,51.11555556,-2.928333333,6-7-1685
http://www.wikidata.org/entity/Q2562633,Battle of Lemo,60.393632,22.312968,19-6-1808
http://www.wikidata.org/entity/Q2568416,Battle of Thessalonica,40.6403,22.9439,1-1-380
http://www.wikidata.org/entity/Q2568851,Battle of Baku,40.45,49.783333,26-08-1918
http://www.wikidata.org/entity/Q2570177,Battle of Kennesaw Mountain,33.96899,-84.58134,27-6-1864
http://www.wikidata.org/entity/Q2570192,Battle of Alamana,38.85344444,22.45878056,1-1-1821
http://www.wikidata.org/entity/Q257137,Battle of Newtownmountkennedy,53.090107,-6.110287,30-5-1798
http://www.wikidata.org/entity/Q2571823,Battle of El Mazuco,43.38222222,-4.8525,06-09-1937
http://www.wikidata.org/entity/Q2572804,Battle of Dunkeld,56.565,-3.585,21-8-1689
http://www.wikidata.org/entity/Q2574400,Battle of the Rosebud,45.22305556,-106.9977778,17-6-1876
http://www.wikidata.org/entity/Q2575889,Battle of Rhode Island,41.596,-71.263,29-8-1778
http://www.wikidata.org/entity/Q2577392,Battle of Gravia Inn,38.67111111,22.42888889,1-1-1821
http://www.wikidata.org/entity/Q2579501,Battle of Valtetsi,37.4775,22.28472222,1-1-1821
http://www.wikidata.org/entity/Q2579514,Battle of Doliana,37.386,22.498,1-1-1821
http://www.wikidata.org/entity/Q25809,Battle of Krasnoi,54.56,31.43,15-11-1812
http://www.wikidata.org/entity/Q2583233,Battle of Palembang,-2.983333333,104.7644444,13-02-1942
http://www.wikidata.org/entity/Q2583507,Battle of the Cerna Bend,41.65,21.716667,01-10-1916
http://www.wikidata.org/entity/Q2584330,Battle of Karpenisi,39.056028,21.5723,1-1-1821
http://www.wikidata.org/entity/Q2585904,Battle of Cambrai,50.1767,3.23556,08-10-1918
http://www.wikidata.org/entity/Q2586793,Battle of Beneventum (212 BC),41.1333,14.7833,1-1--217
http://www.wikidata.org/entity/Q2589772,Battle of Montenaken,50.7222,5.13444,20-10-1465
http://www.wikidata.org/entity/Q2590023,Siege of Tripolitsa,37.51666667,22.38333333,1-4-1821
http://www.wikidata.org/entity/Q2594918,Battle of Honkaniemi,60.65,28.78333333,25-02-1940
http://www.wikidata.org/entity/Q2595291,Battle of Kelly's Ford,38.47692,-77.77988,12-4-1861
http://www.wikidata.org/entity/Q2597597,Battle of Krasny Bor,59.67972222,30.66944444,13-02-1943
http://www.wikidata.org/entity/Q2599254,Battle of Alavus,62.5864,23.6158,21-2-1808
http://www.wikidata.org/entity/Q2599844,Battle of Kletsk,53.018119,26.702929,16-8-1506
http://www.wikidata.org/entity/Q2600516,Kiev Offensive,50.45,30.5167,24-04-1920
http://www.wikidata.org/entity/Q2600543,Battle of Pyhäjoki,64.46388889,24.25833333,21-2-1808
http://www.wikidata.org/entity/Q2600573,Siege of Sveaborg,60.14722222,24.98722222,2-3-1808
http://www.wikidata.org/entity/Q2600584,Battle of Lapua,62.9667,23.0167,21-2-1808
http://www.wikidata.org/entity/Q2600996,Battle of Pulkkila,64.26805556,25.86666667,21-2-1808
http://www.wikidata.org/entity/Q2601126,Battle of Sadras,12.52339722,80.17685,17-2-1782
http://www.wikidata.org/entity/Q2601158,Battle of Trincomalee,8.54910833,81.23771667,19-4-1775
http://www.wikidata.org/entity/Q2601178,Battle of Negapatam,10.778,79.86614167,6-7-1782
http://www.wikidata.org/entity/Q2601189,Battle of Providien,8.25498333,81.51306111,12-4-1782
http://www.wikidata.org/entity/Q2602904,Battle of Cocherel,49.07472222,1.364722222,1-1-1337
http://www.wikidata.org/entity/Q2604991,Battle of Funkstown,39.60592,-77.700462,12-4-1861
http://www.wikidata.org/entity/Q2606313,Battle of Negapatam,10.766667,79.833333,29-8-1756
http://www.wikidata.org/entity/Q2606331,Battle of Cuddalore (1758),11.75,79.75,29-4-1758
http://www.wikidata.org/entity/Q2611018,Battle of Natural Bridge,30.28388889,-84.15194444,6-3-1865
http://www.wikidata.org/entity/Q261345,Battle of Lerida,41.61666667,0.63333333,7-10-1642
http://www.wikidata.org/entity/Q2615532,Battle of Chmielnik,50.61166667,20.74972222,1-4-1241
http://www.wikidata.org/entity/Q2615801,Battle of Adairsville,34.4083,-84.9389,12-4-1861
http://www.wikidata.org/entity/Q2615826,Battle of Resaca,34.5815,-84.9385,12-4-1861
http://www.wikidata.org/entity/Q2617813,Battle of Manila,14.58333333,120.9666667,29-8-1756
http://www.wikidata.org/entity/Q261872,Battle of Tarcal,48.13128,21.34267,7-10-1527
http://www.wikidata.org/entity/Q2618945,Battle of Fredericktown,37.5434,-90.2969,12-4-1861
http://www.wikidata.org/entity/Q2624653,Battle of the Barracks,46.309,16.328,14-09-1991
http://www.wikidata.org/entity/Q2624980,Battle of Tobruk,32.07611111,23.96138889,22-12-1911
http://www.wikidata.org/entity/Q2626237,,50.95,2.85,28-07-1914
http://www.wikidata.org/entity/Q262648,Battle of Höchstädt,48.6,10.55,19-6-1800
http://www.wikidata.org/entity/Q2628082,Battle of Elbistan,38.2,37.18333333,18-4-1277
http://www.wikidata.org/entity/Q2628768,Battle of Marciano,43.30583333,11.7875,2-8-1554
http://www.wikidata.org/entity/Q2628859,Battle of Bucharest,44.4,26.08333333,25-11-1916
http://www.wikidata.org/entity/Q2631739,Battle of Kajmakchalan,40.94222222,21.80472222,12-09-1916
http://www.wikidata.org/entity/Q2632506,Battle of Tarentum (209 BC),40.46666667,17.23333333,1-1--217
http://www.wikidata.org/entity/Q2632522,Battle of Tarentum (212 BC),40.46666667,17.23333333,1-1--217
http://www.wikidata.org/entity/Q2632850,Battle of Bitlis,38.4,42.11666667,01-07-1915
http://www.wikidata.org/entity/Q2632927,Battle of Chickasaw Bayou,32.399,-90.854,12-4-1861
http://www.wikidata.org/entity/Q2633083,Battle of Transylvania,46.76666667,23.58333333,27-08-1916
http://www.wikidata.org/entity/Q2633421,Gas attack at Hulluch,50.4867,2.8175,27-04-1916
http://www.wikidata.org/entity/Q2634717,Battle of Bazentin Ridge,50.02744444,2.754166667,14-07-1916
http://www.wikidata.org/entity/Q2636580,,51.09944444,11.5875,14-10-1806
http://www.wikidata.org/entity/Q2638217,Battle of Koljonvirta,63.58861111,27.16416667,21-2-1808
http://www.wikidata.org/entity/Q2639377,Siege of Kolberg,54.1833,15.5833,29-8-1756
http://www.wikidata.org/entity/Q263950,Battle of Elandslaagte,-28.4,29.95,21-10-1899
http://www.wikidata.org/entity/Q2640011,Battle of Barbourville,36.86111111,-83.87944444,12-4-1861
http://www.wikidata.org/entity/Q2641750,Battle of Goose Green,-51.82883333,-58.96916667,28-05-1982
http://www.wikidata.org/entity/Q264737,Battle of Tolbiac,50.67527778,6.601111111,1-1-496
http://www.wikidata.org/entity/Q26493,Battle of Dandanaqan,37.391933,61.345353,29-5-1040
http://www.wikidata.org/entity/Q26496,Battle of Surabaya,-8.42305556,115.2486111,27-10-1945
http://www.wikidata.org/entity/Q265032,Battle of Montlhéry,48.63861111,2.272222222,16-7-1465
http://www.wikidata.org/entity/Q2655444,Battle of Zliten,32.46666667,14.56666667,21-07-2011
http://www.wikidata.org/entity/Q2657536,Battle of Boroughbridge,54.09777778,-1.4075,24-3-1322
http://www.wikidata.org/entity/Q2658952,Battle of Cole Camp,38.3,-93.29,12-4-1861
http://www.wikidata.org/entity/Q2659382,Battle of Cartagena,37.6,-0.983333,3-9-1643
http://www.wikidata.org/entity/Q2659387,Battle of Beauport,46.89018,-71.14726,31-7-1759
http://www.wikidata.org/entity/Q2662144,Battle of Pondicherry,11.93333333,79.83333333,10-9-1759
http://www.wikidata.org/entity/Q2663279,Battle of Palikao,39.90666667,116.6141667,1-1-1856
http://www.wikidata.org/entity/Q2663546,Battle of Vuosalmi,60.7181,29.575,04-07-1944
http://www.wikidata.org/entity/Q2664174,Battle of Kamdesh,35.41,71.34139,03-10-2009
http://www.wikidata.org/entity/Q2665626,Battle of Beersheba,31.24977222,34.79970833,29-10-1914
http://www.wikidata.org/entity/Q2666730,Action of August 1702,11.241,-74.206,4-9-1702
http://www.wikidata.org/entity/Q266689,First Battle of Dego,44.45,8.31667,21-9-1794
http://www.wikidata.org/entity/Q2667561,Battle of Nikopol,43.7,24.88333333,16-7-1877
http://www.wikidata.org/entity/Q2670926,Battle of Seminara,38.33333333,15.86666667,28-6-1495
http://www.wikidata.org/entity/Q2672202,Battle of Fort Sanders,35.9589,-83.9338,12-4-1861
http://www.wikidata.org/entity/Q2672355,Destruction of Psara,38.5693,25.5847,1-1-1821
http://www.wikidata.org/entity/Q2687368,Battle of Missionary Ridge,35.03,-85.257,25-11-1863
http://www.wikidata.org/entity/Q2688934,Battle of Salineville,40.62055556,-80.90166667,12-4-1861
http://www.wikidata.org/entity/Q2689975,Battle of Molino del Rey,19.41861111,-99.19083333,8-9-1847
http://www.wikidata.org/entity/Q2700708,Capture of New Orleans,29.9575,-90.06305556,12-4-1861
http://www.wikidata.org/entity/Q2701128,Battle of Torroella,42.0439,3.12861,27-5-1694
http://www.wikidata.org/entity/Q2705872,Battle of Baltim,31.65513611,31.45729167,09-10-1973
http://www.wikidata.org/entity/Q2717440,Battle of Acosta Ñu,-24.84027778,-56.51583333,27-12-1864
http://www.wikidata.org/entity/Q2718092,Battle of Sahagún,42.37083333,-5.029166667,21-12-1808
http://www.wikidata.org/entity/Q271873,Battle of the Trebia,45.05,9.6,1-1--217
http://www.wikidata.org/entity/Q2724014,Battle of Texel,53.15,4.6,29-6-1694
http://www.wikidata.org/entity/Q2726112,Battle of Bilbao,43.25,-2.91666667,11-06-1937
http://www.wikidata.org/entity/Q273011,Battle of Marengo,44.88333333,8.683333333,14-6-1800
http://www.wikidata.org/entity/Q273069,Battle of Lechfeld,48.17,10.81,10-8-955
http://www.wikidata.org/entity/Q2732287,Battle of Porto Praya,14.90729722,-23.50490556,16-4-1781
http://www.wikidata.org/entity/Q2736004,Battle of Palo Alto,26.02007,-97.46538,8-5-1846
http://www.wikidata.org/entity/Q2736986,Battle of Karnal,29.69,76.98833333,24-2-1739
http://www.wikidata.org/entity/Q2741307,Battle of Frisches Haff,53.80444444,14.14027778,10-9-1759
http://www.wikidata.org/entity/Q2744931,Battle of Dijon,47.3217,5.04139,29-10-1870
http://www.wikidata.org/entity/Q2746040,Battle of Landriano,45.3167,9.26667,21-6-1529
http://www.wikidata.org/entity/Q2748355,Battle of Route Coloniale 4,22.4242,106.44,01-10-1950
http://www.wikidata.org/entity/Q275019,Battle of Smolensk,54.7833,32.05,01-09-1939
http://www.wikidata.org/entity/Q2750389,Battle of Mišar,44.7292,19.7608,12-8-1806
http://www.wikidata.org/entity/Q2750968,Battle of Alexandria,31.31055556,30.06833333,21-3-1801
http://www.wikidata.org/entity/Q2752838,Second Battle of Auburn,38.70213,-77.70181,12-4-1861
http://www.wikidata.org/entity/Q2757656,Battle of Burgos,42.3558,-3.66806,7-11-1808
http://www.wikidata.org/entity/Q276059,Battle of Vitoria,42.85,-2.683333333,21-6-1813
http://www.wikidata.org/entity/Q276852,Battle of Slivice,49.6433,14.0472,01-09-1939
http://www.wikidata.org/entity/Q27759,Battle of Crécy,50.257,1.904,26-8-1346
http://www.wikidata.org/entity/Q2776646,Battle of Nitzanim,31.71659722,34.6338,10-06-1948
http://www.wikidata.org/entity/Q2781626,Battle of Dranesville,38.99547222,-77.33719444,12-4-1861
http://www.wikidata.org/entity/Q278903,Battle of Lechaeum,37.934142,22.884225,1-1--394
http://www.wikidata.org/entity/Q2789421,Battle of Prairie Grove,35.99305556,-94.30777778,12-4-1861
http://www.wikidata.org/entity/Q2799746,,48.61916667,7.723611111,8-3-1262
http://www.wikidata.org/entity/Q280868,Battle of Gergovia,45.70833333,3.125,1-1--57
http://www.wikidata.org/entity/Q281089,Battle of Ludford Bridge,52.36375,-2.718888889,12-10-1459
http://www.wikidata.org/entity/Q281648,Battle of Dupplin Moor,56.422,-3.4,26-8-1332
http://www.wikidata.org/entity/Q281850,Battle of Stanwix Station,32.93352,-113.39255,12-4-1861
http://www.wikidata.org/entity/Q28205,Battle of the Vistula River,52.21666667,21.03333333,28-07-1914
http://www.wikidata.org/entity/Q282262,Battle of Cromdale,57.33166667,-3.48916667,30-4-1690
http://www.wikidata.org/entity/Q283015,Battle of Beaugency,46.7958,1.64917,4-7-1429
http://www.wikidata.org/entity/Q283062,Battle of Benevento,41.1333,14.7833,26-2-1266
http://www.wikidata.org/entity/Q2837436,Battle of Ayohuma,-18.85583333,-66.13472222,14-11-1813
http://www.wikidata.org/entity/Q284649,Pointe du Hoc,49.39583333,-0.988888889,06-06-1944
http://www.wikidata.org/entity/Q28651,Bitche during the siege of 1870-1871,49.0525,7.42583,8-8-1870
http://www.wikidata.org/entity/Q287389,Battle of Monte Pelado,42.1401,-0.408897222,28-08-1936
http://www.wikidata.org/entity/Q288345,Battle of Lincoln,53.235,-0.53861111,2-2-1141
http://www.wikidata.org/entity/Q2885195,Battle of Toulouse,43.60444444,1.443888889,10-4-1814
http://www.wikidata.org/entity/Q2886888,Battle of Cambrils,41.07527778,1.05444444,16-12-1640
http://www.wikidata.org/entity/Q2887778,Battle of Point Pedro,9.666666667,80,11-05-2006
http://www.wikidata.org/entity/Q2887781,Battle of Sunchon,39.4167,125.933,01-12-1951
http://www.wikidata.org/entity/Q2887789,Abagana,6.18333333,6.98333333,31-03-1968
http://www.wikidata.org/entity/Q2887792,Air Battle of El Mansoura,31.04083333,31.38388889,14-10-1973
http://www.wikidata.org/entity/Q2887801,Battle of Adibo,9.431944444,-0.004166667,4-12-1896
http://www.wikidata.org/entity/Q2887811,Battle of Adré,13.46666667,22.2,18-12-2005
http://www.wikidata.org/entity/Q2887813,,46.74,-1.608333333,20-5-1815
http://www.wikidata.org/entity/Q2887817,Battle of Al Jawf,24.21666667,23.3,04-04-2011
http://www.wikidata.org/entity/Q2887826,,39.24166667,-8.793333333,18-2-1834
http://www.wikidata.org/entity/Q2887827,Battle of Allatoona,34.116,-84.716,5-10-1864
http://www.wikidata.org/entity/Q2887839,Battle of Am Dam,12.76222222,20.47027778,07-05-2009
http://www.wikidata.org/entity/Q2887840,Battle of Amba Aradam,13.33333333,39.51666667,10-02-1936
http://www.wikidata.org/entity/Q2887847,Battle of Ampfing,48.2667,12.4167,1-12-1800
http://www.wikidata.org/entity/Q2887849,,50.8333,4.3,13-11-1792
http://www.wikidata.org/entity/Q2887854,Battle of Ancrum Moor,55.53675,-2.60758,9-3-1545
http://www.wikidata.org/entity/Q2887859,,45.75222222,5.111944444,11-6-1430
http://www.wikidata.org/entity/Q2887862,,42.41666667,13.08333333,9-3-1821
http://www.wikidata.org/entity/Q2887863,Battle of Anholt,56.70666667,11.5725,27-3-1811
http://www.wikidata.org/entity/Q2887868,Battle of Adrianople,41.6744,26.5608,03-11-1912
http://www.wikidata.org/entity/Q2887870,Battle of Apache Pass,32.157,-109.453,16-7-1862
http://www.wikidata.org/entity/Q2887878,,48.05722222,-1.153888889,6-8-1799
http://www.wikidata.org/entity/Q2887879,Battle of Ardres,50.85472222,1.9775,1-1-1337
http://www.wikidata.org/entity/Q2887880,,48.05722222,-1.153888889,6-6-1795
http://www.wikidata.org/entity/Q2887887,Battle of Arkinholm,55.15083333,-2.99944444,1-5-1455
http://www.wikidata.org/entity/Q2887888,Battle of Armentières,50.6881,2.88111,13-10-1914
http://www.wikidata.org/entity/Q2887891,Battle of Arracourt,48.74166667,6.61416667,18-09-1944
http://www.wikidata.org/entity/Q2887896,,18.9,-98.45,4-5-1862
http://www.wikidata.org/entity/Q2887897,Battle of Arica,-18.475,-70.31444444,7-6-1880
http://www.wikidata.org/entity/Q2887902,Battle of Asseiceira,39.6,-8.416666667,16-5-1834
http://www.wikidata.org/entity/Q2887905,,48.46194444,1.773055556,24-11-1587
http://www.wikidata.org/entity/Q2887910,,47.61083333,-1.289166667,2-2-1796
http://www.wikidata.org/entity/Q2887913,Battle of Les Avins,50.4,5.283,1-1-1618
http://www.wikidata.org/entity/Q2887916,Battle of Aughrim,53.295,-8.312,22-7-1691
http://www.wikidata.org/entity/Q2887919,Battle of Averasborough,35.2661,-78.6721,16-3-1865
http://www.wikidata.org/entity/Q2887924,Battle of Azaz,36.58611111,37.04472222,1-1-1030
http://www.wikidata.org/entity/Q2887926,Battle of El-Moungar,35.433333,4.05,02-09-1903
http://www.wikidata.org/entity/Q2887928,Battle of Eccles Hill,45.019928,-72.904395,25-5-1870
http://www.wikidata.org/entity/Q2887933,Battle of Elands River,-31.85083333,26.16777778,17-09-1901
http://www.wikidata.org/entity/Q2887936,,-25.75,28.033,16-1-1881
http://www.wikidata.org/entity/Q2887939,Battle of El Herri,32.857,-5.623,01-01-1914
http://www.wikidata.org/entity/Q2887940,,47.73222222,-2.589444444,13-7-1795
http://www.wikidata.org/entity/Q2887946,Battle of Enniscorthy,52.50194444,-6.565833333,28-5-1798
http://www.wikidata.org/entity/Q2887948,Battle of the Lines of Elvas,38.88,-7.162777778,14-1-1659
http://www.wikidata.org/entity/Q2887951,,48.2975,-0.931388889,2-11-1793
http://www.wikidata.org/entity/Q2887960,Battle of Hasselt,50.91666667,5.333333333,8-8-1831
http://www.wikidata.org/entity/Q2887968,Battle of Heliopolis,30.1,31.33333333,20-3-1800
http://www.wikidata.org/entity/Q2887974,,0.362778,-78.13,17-7-1823
http://www.wikidata.org/entity/Q2887977,Battle of Hormizdegan,32.05,48.85,24-4-224
http://www.wikidata.org/entity/Q2887984,Battle of Iganie,52.1672,22.2106,10-4-1831
http://www.wikidata.org/entity/Q2887997,Battle of Irún,43.33333333,-1.78333333,19-08-1936
http://www.wikidata.org/entity/Q2888010,Battle of Ishibashiyama,35.2325,139.1069444,14-9-1180
http://www.wikidata.org/entity/Q2888024,Battle of Orbetello,42.43333333,11.21666667,1-1-1618
http://www.wikidata.org/entity/Q2888026,Battle of Ostrołęka,53.0833,21.5833,16-2-1807
http://www.wikidata.org/entity/Q2888045,,47.65027778,12.72694444,25-9-1809
http://www.wikidata.org/entity/Q2888053,,33.6,36.3,17-08-2012
http://www.wikidata.org/entity/Q2888057,Battle of Uji,34.88083333,135.7794444,19-2-1184
http://www.wikidata.org/entity/Q2888065,Battle of Utica (203 BC),37.056528,10.062258,1-1--217
http://www.wikidata.org/entity/Q2888071,Battle of Bab El Oued,36.79070278,3.049730556,23-03-1962
http://www.wikidata.org/entity/Q2888072,Battle of Ayta ash-Shab,33.0975,35.33611111,11-08-2006
http://www.wikidata.org/entity/Q2888075,,-6.433333333,38.9,22-9-1888
http://www.wikidata.org/entity/Q2888083,Battle of Bakenlaagte,-26.3475,29.1336,30-10-1901
http://www.wikidata.org/entity/Q2888086,Battle of Ballinamuck,53.86666667,-7.716666667,8-9-1798
http://www.wikidata.org/entity/Q2888090,,47.9325,-0.416111111,26-10-1799
http://www.wikidata.org/entity/Q2888096,Battle of Ballynahinch,54.411,-5.895,24-5-1798
http://www.wikidata.org/entity/Q2888101,Battle of Ballon,47.70444444,-2.07027778,22-11-845
http://www.wikidata.org/entity/Q2888104,Battle of Barren Hill,40.08416,-75.25076,20-5-1778
http://www.wikidata.org/entity/Q2888111,Battle of Barcelona,41.4019,2.16667,1-1-1618
http://www.wikidata.org/entity/Q2888118,,46.67777778,-1.608888889,29-4-1793
http://www.wikidata.org/entity/Q2888120,,46.67777778,-1.608888889,28-6-1795
http://www.wikidata.org/entity/Q2888122,Battle of Basra,30.5,47.8,20-03-2003
http://www.wikidata.org/entity/Q2888125,,47.20277778,-0.993333333,14-2-1794
http://www.wikidata.org/entity/Q2888127,,47.20277778,-0.993333333,22-4-1793
http://www.wikidata.org/entity/Q2888129,,47.97166667,-2.169722222,3-5-1794
http://www.wikidata.org/entity/Q2888133,Battle of Benavente,42.0031,-5.67417,29-12-1808
http://www.wikidata.org/entity/Q2888138,Battle of Besançon,47.2431,6.02194,21-6-1575
http://www.wikidata.org/entity/Q2888144,,-28.31666667,27.6,29-05-1900
http://www.wikidata.org/entity/Q2888147,Battle of Brak,27.54583333,14.26861111,14-09-2011
http://www.wikidata.org/entity/Q2888152,Battle of Blood River Poort,-27.767,30.533,17-09-1901
http://www.wikidata.org/entity/Q2888172,Battle of Boomplaats,-29.84421667,25.60317222,29-8-1848
http://www.wikidata.org/entity/Q2888175,Battle of Borghetto,45.35,10.7333,30-5-1796
http://www.wikidata.org/entity/Q2888176,Battle of Borgo,42.5547,9.42806,10-10-1768
http://www.wikidata.org/entity/Q2888182,,48.56583889,-1.365763889,3-12-1795
http://www.wikidata.org/entity/Q2888184,Battle of Bothaville,-27.383,26.617,06-11-1900
http://www.wikidata.org/entity/Q2888185,Borota raid,13,21.85,06-01-2006
http://www.wikidata.org/entity/Q2888187,Battle of Bothwell Bridge,55.79583333,-4.05777778,22-6-1679
http://www.wikidata.org/entity/Q2888189,,36.62541,3.47934,12-08-1957
http://www.wikidata.org/entity/Q2888197,Battle of Bramham Moor,53.86444444,-1.34138889,19-2-1408
http://www.wikidata.org/entity/Q2888198,,46.84083333,-0.487222222,24-2-1794
http://www.wikidata.org/entity/Q2888205,,48.2083,6.72111,30-10-1944
http://www.wikidata.org/entity/Q2888212,Battle of Bukoba,-1.33333333,31.81666667,21-06-1915
http://www.wikidata.org/entity/Q2888218,Battle of Buzenval (1870),48.8778,2.18132,21-10-1870
http://www.wikidata.org/entity/Q2888219,,22.9777,-82.9224,30-8-1638
http://www.wikidata.org/entity/Q2888227,Battle of Ban Me Thuot,12.68,108.06,03-03-1975
http://www.wikidata.org/entity/Q2888231,Battle of Baton Rouge,30.45,-91.1333,19-4-1775
http://www.wikidata.org/entity/Q2888238,Battle of Camaret,48.27666667,-4.595555556,18-6-1694
http://www.wikidata.org/entity/Q2888239,,45.45,8.616666667,22-4-1363
http://www.wikidata.org/entity/Q2888242,,43.29833333,1.219722222,12-8-1799
http://www.wikidata.org/entity/Q2888243,Battle of Cape Fear River,33.88555556,-78.01277778,26-9-1718
http://www.wikidata.org/entity/Q2888245,Battle of Cap-Français,19.8,-72.2,21-10-1757
http://www.wikidata.org/entity/Q2888250,Battle of Carpi,44.78333333,10.88333333,10-4-1815
http://www.wikidata.org/entity/Q2888252,Battle of Cartagena,37.6,-0.983333,28-2-1758
http://www.wikidata.org/entity/Q2888256,Battle of Castel di Sangro,41.76666667,14.1,28-4-1815
http://www.wikidata.org/entity/Q2888261,Battle of Cañada Strongest,-22.17777778,-61.91805556,25-05-1934
http://www.wikidata.org/entity/Q2888269,Battle of Castlebar,53.86083333,-9.298888889,27-8-1798
http://www.wikidata.org/entity/Q2888271,,-29.9,-71.25,29-4-1859
http://www.wikidata.org/entity/Q2888284,Battle of Cesenatico,44.2,12.41666667,23-4-1815
http://www.wikidata.org/entity/Q2888286,,46.84666667,-1.878055556,7-4-1794
http://www.wikidata.org/entity/Q2888288,,47.35138889,-0.7625,18-3-1795
http://www.wikidata.org/entity/Q2888290,,46.84666667,-1.878055556,13-4-1793
http://www.wikidata.org/entity/Q2888291,,46.84666667,-1.878055556,6-6-1794
http://www.wikidata.org/entity/Q2888294,,46.9225,-0.963611111,18-11-1799
http://www.wikidata.org/entity/Q2888297,,46.76722222,-0.523055556,10-7-1794
http://www.wikidata.org/entity/Q2888298,,46.83,-1.271944444,2-2-1794
http://www.wikidata.org/entity/Q2888299,Battle of Chantonnay,46.68777778,-1.049444444,5-9-1793
http://www.wikidata.org/entity/Q2888300,,47.28833333,-0.983611111,24-4-1794
http://www.wikidata.org/entity/Q2888302,,47.21305556,-0.725833333,11-4-1793
http://www.wikidata.org/entity/Q2888316,,48.95,2.7,28-3-1814
http://www.wikidata.org/entity/Q2888317,Battle of Clitheroe,53.873,-2.391,1-1-1135
http://www.wikidata.org/entity/Q2888320,,46.10833333,3.310277778,6-1-1568
http://www.wikidata.org/entity/Q2888327,,-33.06666667,-71.63333333,21-8-1891
